[{"storeId":5,"displayName":"Nottingham Beeston","long":-1.214508,"lat":52.92767,"postcode":"NG9 2JQ","street":"31 High Road","town":"Nottingham","phoneNumber":"01159254464","stockLevels":{"26":{"itemName":"Elvanse Adult","itemStrength":"30mg","stockLevelValue":"R"}}},{"storeId":6,"displayName":"Nottingham Victoria Centre","long":-1.146675,"lat":52.9556,"postcode":"NG1 3QS","street":"11-19 Lower Parliament Street","town":"Nottingham","phoneNumber":"01159410199","stockLevels":{"26":{"itemName":"Elvanse Adult","itemStrength":"30mg","stockLevelValue":"G"}}},{"storeId":9,"displayName":"Nottingham Mapperley","long":-1.120241,"lat":52.98483,"postcode":"NG3 5QS","street":"944 Woodborough Road","town":"Nottingham","phoneNumber":"01159623564","stockLevels":{"26":{"itemName":"Elvanse Adult","itemStrength":"30mg","stockLevelValue":"G"}}},{"storeId":12,"displayName":"Mansfield Four Seasons Centre","long":-1.199015,"lat":53.14465,"postcode":"NG18 1SU","street":"39 Four Seasons Centre","town":"Mansfield","phoneNumber":"01623623089","stockLevels":{"26":{"itemName":"Elvanse Adult","itemStrength":"30mg","stockLevelValue":"G"}}},{"storeId":14,"displayName":"Newark Stodman Street","long":-0.8105611,"lat":53.07626,"postcode":"NG24 1AT","street":"14-15 Stodman Street","town":"Newark","phoneNumber":"01636703857","stockLevels":{"26":{"itemName":"Elvanse Adult","itemStrength":"30mg","stockLevelValue":"R"}}},{"storeId":16,"displayName":"Nottingham Hucknall 52-54 High Street","long":-1.203757,"lat":53.03845,"postcode":"NG15 7AX","street":"52-54 High Street","town":"Nottingham","phoneNumber":"01159633505","stockLevels":{"26":{"itemName":"Elvanse Adult","itemStrength":"30mg","stockLevelValue":"G"}}},{"storeId":17,"displayName":"Nottingham Clifton","long":-1.17784,"lat":52.90329,"postcode":"NG11 8AA","street":"222-224 Southchurch Drive","town":"Nottingham","phoneNumber":"01159215630","stockLevels":{"26":{"itemName":"Elvanse Adult","itemStrength":"30mg","stockLevelValue":"G"}}},{"storeId":19,"displayName":"Belper King Street","long":-1.483504,"lat":53.02296,"postcode":"DE56 1PS","street":"12 King Street","town":"Belper","phoneNumber":"01773822052","stockLevels":{"26":{"itemName":"Elvanse Adult","itemStrength":"30mg","stockLevelValue":"R"}}},{"storeId":20,"displayName":"Loughborough Market Place","long":-1.207087,"lat":52.77185,"postcode":"LE11 3EQ","street":"11-13 Market Place","town":"Loughborough","phoneNumber":"01509214761","stockLevels":{"26":{"itemName":"Elvanse Adult","itemStrength":"30mg","stockLevelValue":"G"}}},{"storeId":21,"displayName":"Bingham Eaton Place","long":-0.9533327,"lat":52.9522,"postcode":"NG13 8BD","street":"14-16 Eaton Place","town":"Nottingham","phoneNumber":"01949837857","stockLevels":{"26":{"itemName":"Elvanse Adult","itemStrength":"30mg","stockLevelValue":"R"}}},{"storeId":23,"displayName":"Derby  Intu Shopping Centre","long":-1.473409,"lat":52.9201,"postcode":"DE1 2AH","street":"1 Devonshire Walk","town":"Derby","phoneNumber":"01332345886","stockLevels":{"26":{"itemName":"Elvanse Adult","itemStrength":"30mg","stockLevelValue":"R"}}},{"storeId":26,"displayName":"Ilkeston Bath Street","long":-1.308608,"lat":52.97375,"postcode":"DE7 8FD","street":"48A Bath Street","town":"Ilkeston","phoneNumber":"01159324730","stockLevels":{"26":{"itemName":"Elvanse Adult","itemStrength":"30mg","stockLevelValue":"R"}}},{"storeId":28,"displayName":"Worksop Bridge Street","long":-1.124909,"lat":53.3046,"postcode":"S80 1JQ","street":"24-26 Bridge Street","town":"Worksop","phoneNumber":"01909472144","stockLevels":{"26":{"itemName":"Elvanse Adult","itemStrength":"30mg","stockLevelValue":"R"}}},{"storeId":29,"displayName":"Boston Market Place","long":-0.02292106,"lat":52.97763,"postcode":"PE21 6EH","street":"26 Market Place","town":"Boston","phoneNumber":"01205362138","stockLevels":{"26":{"itemName":"Elvanse Adult","itemStrength":"30mg","stockLevelValue":"R"}}},{"storeId":30,"displayName":"Newport Pagnell High Street","long":-0.7253106,"lat":52.08648,"postcode":"MK16 8PY","street":"86 High Street","town":"Newport Pagnell","phoneNumber":"01908611161","stockLevels":{"26":{"itemName":"Elvanse Adult","itemStrength":"30mg","stockLevelValue":"R"}}},{"storeId":32,"displayName":"Retford Carolgate","long":-0.9423699,"lat":53.32084,"postcode":"DN22 6DY","street":"48 Carolgate","town":"Retford","phoneNumber":"01777703812","stockLevels":{"26":{"itemName":"Elvanse Adult","itemStrength":"30mg","stockLevelValue":"R"}}},{"storeId":33,"displayName":"Melton Mowbray Cheapside","long":-0.8873933,"lat":52.7646,"postcode":"LE13 0TP","street":"1-2 Cheapside","town":"Melton Mowbray","phoneNumber":"01664563088","stockLevels":{"26":{"itemName":"Elvanse Adult","itemStrength":"30mg","stockLevelValue":"R"}}},{"storeId":34,"displayName":"Thorne Finkle Street","long":-0.9623673,"lat":53.6112,"postcode":"DN8 5DE","street":"5 Finkle Street","town":"Doncaster","phoneNumber":"01405812282","stockLevels":{"26":{"itemName":"Elvanse Adult","itemStrength":"30mg","stockLevelValue":"R"}}},{"storeId":35,"displayName":"Birmingham The Bull Ring Shopping Centre","long":-1.895788,"lat":52.47749,"postcode":"B5 4BE","street":"MSU10 Level 2","town":"Birmingham","phoneNumber":"01216326418","stockLevels":{"26":{"itemName":"Elvanse Adult","itemStrength":"30mg","stockLevelValue":"R"}}},{"storeId":36,"displayName":"Gainsborough Market place","long":-0.7764368,"lat":53.39944,"postcode":"DN21 2BY","street":"30 Market Place","town":"Gainsborough","phoneNumber":"01427612083","stockLevels":{"26":{"itemName":"Elvanse Adult","itemStrength":"30mg","stockLevelValue":"R"}}},{"storeId":37,"displayName":"Grantham High Street","long":-0.6421483,"lat":52.91137,"postcode":"NG31 6NE","street":"42-43 High Street","town":"Grantham","phoneNumber":"01476563029","stockLevels":{"26":{"itemName":"Elvanse Adult","itemStrength":"30mg","stockLevelValue":"R"}}},{"storeId":38,"displayName":"Leicester Wigston Bell Street","long":-1.104728,"lat":52.58554,"postcode":"LE18 1AD","street":"27 Bell Street","town":"Wigston","phoneNumber":"01162886359","stockLevels":{"26":{"itemName":"Elvanse Adult","itemStrength":"30mg","stockLevelValue":"R"}}},{"storeId":40,"displayName":"Market Rasen Queen Street","long":-0.3364638,"lat":53.38737,"postcode":"LN8 3EH","street":"4 Queen Street","town":"Market Rasen","phoneNumber":"01673843336","stockLevels":{"26":{"itemName":"Elvanse Adult","itemStrength":"30mg","stockLevelValue":"R"}}},{"storeId":41,"displayName":"Sheffield West Street","long":-1.479358,"lat":53.3803,"postcode":"S1 4EU","street":"252-254 West Street","town":"Sheffield","phoneNumber":"01142721554","stockLevels":{"26":{"itemName":"Elvanse Adult","itemStrength":"30mg","stockLevelValue":"R"}}},{"storeId":42,"displayName":"Oundle Market Place","long":-0.467875,"lat":52.48059,"postcode":"PE8 4BQ","street":"4 Market Place","town":"Peterborough","phoneNumber":"01832273512","stockLevels":{"26":{"itemName":"Elvanse Adult","itemStrength":"30mg","stockLevelValue":"R"}}},{"storeId":45,"displayName":"Barnsley Cheapside","long":-1.479903,"lat":53.55139,"postcode":"S70 1RT","street":"34-40 Cheapside","town":"Barnsley","phoneNumber":"01226282616","stockLevels":{"26":{"itemName":"Elvanse Adult","itemStrength":"30mg","stockLevelValue":"R"}}},{"storeId":46,"displayName":"Whitley Bay Park View Shopping Centre","long":-1.446189,"lat":55.04261,"postcode":"NE26 2TJ","street":"Unit 15 Park View Shopping Centre","town":"Whitley Bay","phoneNumber":"01912522294","stockLevels":{"26":{"itemName":"Elvanse Adult","itemStrength":"30mg","stockLevelValue":"R"}}},{"storeId":48,"displayName":"Thetford King Street","long":0.7489873,"lat":52.41371,"postcode":"IP24 2AN","street":"29-31 King Street","town":"Thetford","phoneNumber":"01842752371","stockLevels":{"26":{"itemName":"Elvanse Adult","itemStrength":"30mg","stockLevelValue":"R"}}},{"storeId":51,"displayName":"Swaffham Market Place","long":0.6871387,"lat":52.64872,"postcode":"PE37 7LA","street":"37 Market Place","town":"Swaffham","phoneNumber":"01760721208","stockLevels":{"26":{"itemName":"Elvanse Adult","itemStrength":"30mg","stockLevelValue":"R"}}},{"storeId":54,"displayName":"Fakenham Market Place","long":0.8474622,"lat":52.82967,"postcode":"NR21 9BG","street":"7-9 Market Place","town":"Fakenham","phoneNumber":"01328862019","stockLevels":{"26":{"itemName":"Elvanse Adult","itemStrength":"30mg","stockLevelValue":"R"}}},{"storeId":55,"displayName":"Chesterfield Low Pavement","long":-1.429299,"lat":53.23492,"postcode":"S40 1PB","street":"35-37 Low Pavement","town":"Chesterfield","phoneNumber":"01246203591","stockLevels":{"26":{"itemName":"Elvanse Adult","itemStrength":"30mg","stockLevelValue":"R"}}},{"storeId":56,"displayName":"Sheffield High Street","long":-1.468163,"lat":53.38235,"postcode":"S1 1QF","street":"4-6 High Street","town":"Sheffield","phoneNumber":"01142768333","stockLevels":{"26":{"itemName":"Elvanse Adult","itemStrength":"30mg","stockLevelValue":"R"}}},{"storeId":57,"displayName":"Sheffield Hillsborough Centre","long":-1.501426,"lat":53.40347,"postcode":"S6 4HL","street":"11-12 Hillsborough Centre","town":"Sheffield","phoneNumber":"01142343685","stockLevels":{"26":{"itemName":"Elvanse Adult","itemStrength":"30mg","stockLevelValue":"R"}}},{"storeId":59,"displayName":"Doncaster Frenchgate Centre","long":-1.136716,"lat":53.52401,"postcode":"DN1 1QB","street":"13-15 French Gate","town":"Doncaster","phoneNumber":"01302342238","stockLevels":{"26":{"itemName":"Elvanse Adult","itemStrength":"30mg","stockLevelValue":"R"}}},{"storeId":61,"displayName":"Sheffield Meadowhall Centre","long":-1.412476,"lat":53.41305,"postcode":"S9 1EN","street":"44A High Street","town":"Sheffield","phoneNumber":"01142568011","stockLevels":{"26":{"itemName":"Elvanse Adult","itemStrength":"30mg","stockLevelValue":"R"}}},{"storeId":62,"displayName":"Bourne West Street","long":-0.3788661,"lat":52.76785,"postcode":"PE10 9NB","street":"3 West Street","town":"Bourne","phoneNumber":"01778422007","stockLevels":{"26":{"itemName":"Elvanse Adult","itemStrength":"30mg","stockLevelValue":"R"}}},{"storeId":64,"displayName":"Burton On Trent Coopers Square","long":-1.632627,"lat":52.80201,"postcode":"DE14 1DG","street":"1 Coopers Square","town":"Burton-on-Trent","phoneNumber":"01283561573","stockLevels":{"26":{"itemName":"Elvanse Adult","itemStrength":"30mg","stockLevelValue":"R"}}},{"storeId":65,"displayName":"Rustington 6-7 Churchill Parade","long":-0.5075603,"lat":50.81083,"postcode":"BN16 3DJ","street":"6-7 Churchill Parade","town":"Littlehampton","phoneNumber":"01903786856","stockLevels":{"26":{"itemName":"Elvanse Adult","itemStrength":"30mg","stockLevelValue":"R"}}},{"storeId":67,"displayName":"Stoke On Trent Longton Exchange","long":-2.135367,"lat":52.98839,"postcode":"ST3 2HX","street":"25 Bennett Precinct","town":"Stoke-on-Trent","phoneNumber":"01782313819","stockLevels":{"26":{"itemName":"Elvanse Adult","itemStrength":"30mg","stockLevelValue":"R"}}},{"storeId":71,"displayName":"Swadlincote High Street","long":-1.555831,"lat":52.77352,"postcode":"DE11 8JE","street":"15-17 High Street","town":"Swadlincote","phoneNumber":"01283216795","stockLevels":{"26":{"itemName":"Elvanse Adult","itemStrength":"30mg","stockLevelValue":"R"}}},{"storeId":72,"displayName":"Brentwood High Street","long":0.3029449,"lat":51.62086,"postcode":"CM14 4RH","street":"51 High Street","town":"Brentwood","phoneNumber":"01277210808","stockLevels":{"26":{"itemName":"Elvanse Adult","itemStrength":"30mg","stockLevelValue":"R"}}},{"storeId":73,"displayName":"Stowmarket Ipswich Street","long":0.9970688,"lat":52.18716,"postcode":"IP14 1AH","street":"21 Ipswich Street","town":"Stowmarket","phoneNumber":"01449612349","stockLevels":{"26":{"itemName":"Elvanse Adult","itemStrength":"30mg","stockLevelValue":"R"}}},{"storeId":74,"displayName":"Hinckley Britannia Centre","long":-1.371906,"lat":52.54237,"postcode":"LE10 1RU","street":"2 Britannia Centre","town":"Hinckley","phoneNumber":"01455637445","stockLevels":{"26":{"itemName":"Elvanse Adult","itemStrength":"30mg","stockLevelValue":"R"}}},{"storeId":75,"displayName":"Market Harborough St Marys Place","long":-0.9188114,"lat":52.47742,"postcode":"LE16 7DR","street":"9 St. Marys Place","town":"Market Harborough","phoneNumber":"01858462154","stockLevels":{"26":{"itemName":"Elvanse Adult","itemStrength":"30mg","stockLevelValue":"R"}}},{"storeId":76,"displayName":"Scunthorpe High Street","long":-0.6455863,"lat":53.59189,"postcode":"DN15 6SB","street":"43-47 High Street","town":"Scunthorpe","phoneNumber":"01724864285","stockLevels":{"26":{"itemName":"Elvanse Adult","itemStrength":"30mg","stockLevelValue":"R"}}},{"storeId":77,"displayName":"Lowestoft London Road North","long":1.752483,"lat":52.47571,"postcode":"NR32 1ET","street":"76A London Road North","town":"Lowestoft","phoneNumber":"01502585717","stockLevels":{"26":{"itemName":"Elvanse Adult","itemStrength":"30mg","stockLevelValue":"R"}}},{"storeId":78,"displayName":"Rushden High Street","long":-0.5978131,"lat":52.28997,"postcode":"NN10 0QE","street":"29 High Street","town":"Rushden","phoneNumber":"01933312242","stockLevels":{"26":{"itemName":"Elvanse Adult","itemStrength":"30mg","stockLevelValue":"R"}}},{"storeId":79,"displayName":"London Gracechurch Street","long":-0.08505681,"lat":51.51145,"postcode":"EC3V 0HR","street":"60 Gracechurch Street","town":"London","phoneNumber":"02076234768","stockLevels":{"26":{"itemName":"Elvanse Adult","itemStrength":"30mg","stockLevelValue":"R"}}},{"storeId":80,"displayName":"Kettering Gold Street","long":-0.7274318,"lat":52.40121,"postcode":"NN16 8JL","street":"35 The Mall","town":"Kettering","phoneNumber":"01536514675","stockLevels":{"26":{"itemName":"Elvanse Adult","itemStrength":"30mg","stockLevelValue":"R"}}},{"storeId":81,"displayName":"Wellingborough Swansgate Centre","long":-0.6914297,"lat":52.30093,"postcode":"NN8 1EZ","street":"73-76 Corn Lane","town":"Wellingborough","phoneNumber":"01933222019","stockLevels":{"26":{"itemName":"Elvanse Adult","itemStrength":"30mg","stockLevelValue":"R"}}},{"storeId":83,"displayName":"Bedford The Harpur Centre","long":-0.4688018,"lat":52.13625,"postcode":"MK40 1TN","street":"33-37 Harpur Centre","town":"Bedford","phoneNumber":"01234356231","stockLevels":{"26":{"itemName":"Elvanse Adult","itemStrength":"30mg","stockLevelValue":"R"}}},{"storeId":84,"displayName":"Northampton The Parade","long":-0.896486,"lat":52.23879,"postcode":"NN1 2BY","street":"9 The Parade","town":"Northampton","phoneNumber":"01604635566","stockLevels":{"26":{"itemName":"Elvanse Adult","itemStrength":"30mg","stockLevelValue":"R"}}},{"storeId":85,"displayName":"Cambridge Petty Cury","long":0.1207374,"lat":52.20553,"postcode":"CB2 3ND","street":"28 Petty Cury","town":"Cambridge","phoneNumber":"01223350213","stockLevels":{"26":{"itemName":"Elvanse Adult","itemStrength":"30mg","stockLevelValue":"R"}}},{"storeId":86,"displayName":"Bury St Edmunds Cornhill","long":0.7113896,"lat":52.24562,"postcode":"IP33 1BX","street":"11-13 Cornhill","town":"Bury St. Edmunds","phoneNumber":"01284701516","stockLevels":{"26":{"itemName":"Elvanse Adult","itemStrength":"30mg","stockLevelValue":"R"}}},{"storeId":87,"displayName":"Birstall Sibson Road","long":-1.124674,"lat":52.68005,"postcode":"LE4 4ND","street":"123 Sibson Road","town":"Leicester","phoneNumber":"01162674074","stockLevels":{"26":{"itemName":"Elvanse Adult","itemStrength":"30mg","stockLevelValue":"R"}}},{"storeId":89,"displayName":"Kings Lynn High Street","long":0.3950232,"lat":52.75435,"postcode":"PE30 1BL","street":"94-96 High Street","town":"King's Lynn","phoneNumber":"01553772427","stockLevels":{"26":{"itemName":"Elvanse Adult","itemStrength":"30mg","stockLevelValue":"R"}}},{"storeId":90,"displayName":"Norwich London Street","long":1.295286,"lat":52.62924,"postcode":"NR2 1LD","street":"34-36 London Street","town":"Norwich","phoneNumber":"01603621295","stockLevels":{"26":{"itemName":"Elvanse Adult","itemStrength":"30mg","stockLevelValue":"R"}}},{"storeId":93,"displayName":"Norwich Anglia Square","long":1.294801,"lat":52.63615,"postcode":"NR3 1DY","street":"11-12 Anglia Square","town":"Norwich","phoneNumber":"01603622524","stockLevels":{"26":{"itemName":"Elvanse Adult","itemStrength":"30mg","stockLevelValue":"R"}}},{"storeId":95,"displayName":"Nottingham West Bridgford","long":-1.127159,"lat":52.93199,"postcode":"NG2 5GR","street":"24 Central Avenue","town":"Nottingham","phoneNumber":"01159811015","stockLevels":{"26":{"itemName":"Elvanse Adult","itemStrength":"30mg","stockLevelValue":"R"}}},{"storeId":96,"displayName":"Staines Two Rivers Retail Park","long":-0.5114546,"lat":51.43581,"postcode":"TW18 4WB","street":"TWO Two Rivers Retail Park","town":"Staines","phoneNumber":"01784455437","stockLevels":{"26":{"itemName":"Elvanse Adult","itemStrength":"30mg","stockLevelValue":"R"}}},{"storeId":97,"displayName":"Great Yarmouth Market Gate Shopping Centre","long":1.728665,"lat":52.60754,"postcode":"NR30 2AX","street":"3 Market Gates Shopping Centre","town":"Great Yarmouth","phoneNumber":"01493859484","stockLevels":{"26":{"itemName":"Elvanse Adult","itemStrength":"30mg","stockLevelValue":"R"}}},{"storeId":98,"displayName":"Lerwick Commercial Street","long":-1.14412,"lat":60.15474,"postcode":"ZE1 0HX","street":"173 Commercial Street","town":"Shetland","phoneNumber":"01595692619","stockLevels":{"26":{"itemName":"Elvanse Adult","itemStrength":"30mg","stockLevelValue":"R"}}},{"storeId":100,"displayName":"Cromer Church Street","long":1.300205,"lat":52.93104,"postcode":"NR27 9HH","street":"54-56 Church Street","town":"Cromer","phoneNumber":"01263512231","stockLevels":{"26":{"itemName":"Elvanse Adult","itemStrength":"30mg","stockLevelValue":"R"}}},{"storeId":101,"displayName":"Grimsby Friargate","long":-0.08679036,"lat":53.56606,"postcode":"DN31 1EL","street":"43 Friargate","town":"Grimsby","phoneNumber":"01472351451","stockLevels":{"26":{"itemName":"Elvanse Adult","itemStrength":"30mg","stockLevelValue":"R"}}},{"storeId":107,"displayName":"Northampton Kingsthorpe","long":-0.9001474,"lat":52.26426,"postcode":"NN2 7SJ","street":"1-2 Alexandra Terrace","town":"Northampton","phoneNumber":"01604714147","stockLevels":{"26":{"itemName":"Elvanse Adult","itemStrength":"30mg","stockLevelValue":"R"}}},{"storeId":108,"displayName":"Brigg Wrawby Street","long":-0.4911592,"lat":53.55233,"postcode":"DN20 8JH","street":"7 Wrawby Street","town":"Brigg","phoneNumber":"01652652269","stockLevels":{"26":{"itemName":"Elvanse Adult","itemStrength":"30mg","stockLevelValue":"R"}}},{"storeId":109,"displayName":"Skegness Lumley Road","long":0.3373557,"lat":53.14324,"postcode":"PE25 3NG","street":"58-64 Lumley Road","town":"Skegness","phoneNumber":"01754763293","stockLevels":{"26":{"itemName":"Elvanse Adult","itemStrength":"30mg","stockLevelValue":"R"}}},{"storeId":110,"displayName":"Stamford High Street","long":-0.4789194,"lat":52.65203,"postcode":"PE9 2AW","street":"66 High Street","town":"Stamford","phoneNumber":"01780762114","stockLevels":{"26":{"itemName":"Elvanse Adult","itemStrength":"30mg","stockLevelValue":"R"}}},{"storeId":113,"displayName":"Sutton In Ashfield The Idlewells","long":-1.26219,"lat":53.12495,"postcode":"NG17 1BN","street":"35 The Idlewells","town":"Sutton In Ashfield","phoneNumber":"01623554094","stockLevels":{"26":{"itemName":"Elvanse Adult","itemStrength":"30mg","stockLevelValue":"R"}}},{"storeId":116,"displayName":"Scunthorpe Ashby High Street","long":-0.6498266,"lat":53.56693,"postcode":"DN16 2SQ","street":"233-235 Ashby High Street","town":"Scunthorpe","phoneNumber":"01724864755","stockLevels":{"26":{"itemName":"Elvanse Adult","itemStrength":"30mg","stockLevelValue":"R"}}},{"storeId":118,"displayName":"Nottingham Long Eaton High Street","long":-1.268926,"lat":52.89662,"postcode":"NG10 1HZ","street":"57-61 High Street","town":"Nottingham","phoneNumber":"01159735241","stockLevels":{"26":{"itemName":"Elvanse Adult","itemStrength":"30mg","stockLevelValue":"R"}}},{"storeId":119,"displayName":"Matlock Causeway Lane","long":-1.554157,"lat":53.13842,"postcode":"DE4 3AR","street":"21 Causeway Lane","town":"Matlock","phoneNumber":"01629582189","stockLevels":{"26":{"itemName":"Elvanse Adult","itemStrength":"30mg","stockLevelValue":"R"}}},{"storeId":120,"displayName":"Nottingham Sherwood","long":-1.145884,"lat":52.98141,"postcode":"NG5 2FS","street":"594 Mansfield Road","town":"Nottingham","phoneNumber":"01159605482","stockLevels":{"26":{"itemName":"Elvanse Adult","itemStrength":"30mg","stockLevelValue":"R"}}},{"storeId":122,"displayName":"Derby Allenton","long":-1.452895,"lat":52.89093,"postcode":"DE24 9AA","street":"832-834 Osmaston Road","town":"Derby","phoneNumber":"01332347294","stockLevels":{"26":{"itemName":"Elvanse Adult","itemStrength":"30mg","stockLevelValue":"R"}}},{"storeId":123,"displayName":"Beccles New Market","long":1.563259,"lat":52.45735,"postcode":"NR34 9HQ","street":"5 New Market","town":"Beccles","phoneNumber":"01502713110","stockLevels":{"26":{"itemName":"Elvanse Adult","itemStrength":"30mg","stockLevelValue":"R"}}},{"storeId":124,"displayName":"Cleethorpes St Peters Avenue","long":-0.03096412,"lat":53.55917,"postcode":"DN35 8HF","street":"63-67 St Peters Avenue","town":"Cleethorpes","phoneNumber":"01472691684","stockLevels":{"26":{"itemName":"Elvanse Adult","itemStrength":"30mg","stockLevelValue":"R"}}},{"storeId":125,"displayName":"Grimsby Freeman Street","long":-0.07293966,"lat":53.57277,"postcode":"DN32 7AE","street":"55 Freeman Street","town":"Grimsby","phoneNumber":"01472354109","stockLevels":{"26":{"itemName":"Elvanse Adult","itemStrength":"30mg","stockLevelValue":"R"}}},{"storeId":127,"displayName":"Ripley High Street","long":-1.406168,"lat":53.04944,"postcode":"DE5 3AA","street":"3 High Street","town":"Ripley","phoneNumber":"01773743170","stockLevels":{"26":{"itemName":"Elvanse Adult","itemStrength":"30mg","stockLevelValue":"R"}}},{"storeId":128,"displayName":"Alfreton High Street","long":-1.38856,"lat":53.09721,"postcode":"DE55 7BL","street":"36 High Street","town":"Alfreton","phoneNumber":"01773833121","stockLevels":{"26":{"itemName":"Elvanse Adult","itemStrength":"30mg","stockLevelValue":"R"}}},{"storeId":129,"displayName":"Sleaford Southgate","long":-0.4090848,"lat":52.99778,"postcode":"NG34 7SY","street":"41-45 Southgate","town":"Sleaford","phoneNumber":"01529302110","stockLevels":{"26":{"itemName":"Elvanse Adult","itemStrength":"30mg","stockLevelValue":"R"}}},{"storeId":130,"displayName":"Louth Mercer Row","long":-0.005398378,"lat":53.36581,"postcode":"LN11 9JQ","street":"26 Mercer Row","town":"Louth","phoneNumber":"01507602578","stockLevels":{"26":{"itemName":"Elvanse Adult","itemStrength":"30mg","stockLevelValue":"R"}}},{"storeId":132,"displayName":"Uxbridge The Chimes Shopping Centre","long":-0.4765175,"lat":51.54531,"postcode":"UB8 1GA","street":"128 The Chimes Shopping Centre","town":"Uxbridge","phoneNumber":"01895233526","stockLevels":{"26":{"itemName":"Elvanse Adult","itemStrength":"30mg","stockLevelValue":"R"}}},{"storeId":134,"displayName":"Woodbridge Thoroughfare","long":1.320041,"lat":52.09367,"postcode":"IP12 1AL","street":"58 Thoroughfare","town":"Woodbridge","phoneNumber":"01394383548","stockLevels":{"26":{"itemName":"Elvanse Adult","itemStrength":"30mg","stockLevelValue":"R"}}},{"storeId":135,"displayName":"Ashbourne St John Street","long":-1.731762,"lat":53.01752,"postcode":"DE6 1GH","street":"7 Horse & Jockey Yard","town":"Ashbourne","phoneNumber":"01335342039","stockLevels":{"26":{"itemName":"Elvanse Adult","itemStrength":"30mg","stockLevelValue":"R"}}},{"storeId":137,"displayName":"Hunstanton High Street","long":0.4894287,"lat":52.93943,"postcode":"PE36 5AB","street":"19 High Street","town":"Hunstanton","phoneNumber":"01485532228","stockLevels":{"26":{"itemName":"Elvanse Adult","itemStrength":"30mg","stockLevelValue":"R"}}},{"storeId":138,"displayName":"Peterborough Queensgate Centre","long":-0.2427633,"lat":52.5736,"postcode":"PE1 1NW","street":"Queensgate Centre","town":"Peterborough","phoneNumber":"01733312211","stockLevels":{"26":{"itemName":"Elvanse Adult","itemStrength":"30mg","stockLevelValue":"R"}}},{"storeId":140,"displayName":"Huntingdon High Street","long":-0.1825173,"lat":52.32962,"postcode":"PE29 3AQ","street":"42 High Street","town":"Huntingdon","phoneNumber":"01480457241","stockLevels":{"26":{"itemName":"Elvanse Adult","itemStrength":"30mg","stockLevelValue":"R"}}},{"storeId":141,"displayName":"Ashby De La Zouch Market Street","long":-1.472585,"lat":52.74649,"postcode":"LE65 1AL","street":"32 Market Street","town":"Ashby De La Zouch","phoneNumber":"01530412203","stockLevels":{"26":{"itemName":"Elvanse Adult","itemStrength":"30mg","stockLevelValue":"R"}}},{"storeId":142,"displayName":"Uppingham High Street East","long":-0.7203112,"lat":52.58818,"postcode":"LE15 9PZ","street":"26 High Street East","town":"Uppingham","phoneNumber":"01572823304","stockLevels":{"26":{"itemName":"Elvanse Adult","itemStrength":"30mg","stockLevelValue":"R"}}},{"storeId":144,"displayName":"Sheffield The Moor","long":-1.473526,"lat":53.37656,"postcode":"S1 4PA","street":"66 The Moor","town":"Sheffield","phoneNumber":"01142725454","stockLevels":{"26":{"itemName":"Elvanse Adult","itemStrength":"30mg","stockLevelValue":"R"}}},{"storeId":147,"displayName":"Halstead High Street","long":0.6366179,"lat":51.94419,"postcode":"CO9 2JD","street":"69-71 High Street","town":"Halstead","phoneNumber":"01787472220","stockLevels":{"26":{"itemName":"Elvanse Adult","itemStrength":"30mg","stockLevelValue":"R"}}},{"storeId":149,"displayName":"London East Ham","long":0.05230241,"lat":51.5368,"postcode":"E6 2HT","street":"82-84 High Street North","town":"London","phoneNumber":"02084720531","stockLevels":{"26":{"itemName":"Elvanse Adult","itemStrength":"30mg","stockLevelValue":"R"}}},{"storeId":150,"displayName":"Bakewell Granby Road","long":-1.674334,"lat":53.21255,"postcode":"DE45 1ES","street":"Unit 1 Granby Road","town":"Bakewell","phoneNumber":"01629812043","stockLevels":{"26":{"itemName":"Elvanse Adult","itemStrength":"30mg","stockLevelValue":"R"}}},{"storeId":154,"displayName":"Sheffield Broomhill","long":-1.501593,"lat":53.37758,"postcode":"S10 3BB","street":"214 Fulwood Road","town":"Sheffield","phoneNumber":"01142660637","stockLevels":{"26":{"itemName":"Elvanse Adult","itemStrength":"30mg","stockLevelValue":"R"}}},{"storeId":155,"displayName":"Oakham High Street","long":-0.7290884,"lat":52.66948,"postcode":"LE15 6AL","street":"18 High Street","town":"Oakham","phoneNumber":"01572722024","stockLevels":{"26":{"itemName":"Elvanse Adult","itemStrength":"30mg","stockLevelValue":"R"}}},{"storeId":156,"displayName":"St Neots High Street","long":-0.267769,"lat":52.22851,"postcode":"PE19 1BW","street":"33 High Street","town":"St. Neots","phoneNumber":"01480214208","stockLevels":{"26":{"itemName":"Elvanse Adult","itemStrength":"30mg","stockLevelValue":"R"}}},{"storeId":158,"displayName":"Manchester The Trafford Centre","long":-2.34902,"lat":53.46619,"postcode":"M17 8BD","street":"10 Peel Avenue","town":"Manchester","phoneNumber":"01617467984","stockLevels":{"26":{"itemName":"Elvanse Adult","itemStrength":"30mg","stockLevelValue":"R"}}},{"storeId":160,"displayName":"Rugeley Brook Square","long":-1.935335,"lat":52.75953,"postcode":"WS15 2DT","street":"5 Brook Square","town":"Rugeley","phoneNumber":"01889582061","stockLevels":{"26":{"itemName":"Elvanse Adult","itemStrength":"30mg","stockLevelValue":"R"}}},{"storeId":161,"displayName":"Harwich High Street","long":1.281101,"lat":51.93746,"postcode":"CO12 3AJ","street":"224-226 High Street","town":"Harwich","phoneNumber":"01255503508","stockLevels":{"26":{"itemName":"Elvanse Adult","itemStrength":"30mg","stockLevelValue":"R"}}},{"storeId":162,"displayName":"Stone High Street","long":-2.146722,"lat":52.90191,"postcode":"ST15 8AW","street":"18-20 High Street","town":"Stone","phoneNumber":"01785813277","stockLevels":{"26":{"itemName":"Elvanse Adult","itemStrength":"30mg","stockLevelValue":"R"}}},{"storeId":163,"displayName":"Stoke On Trent Hanley","long":-2.173938,"lat":53.02655,"postcode":"ST1 1PZ","street":"3-5 Upper Market Square","town":"Stoke-on-Trent","phoneNumber":"01782213271","stockLevels":{"26":{"itemName":"Elvanse Adult","itemStrength":"30mg","stockLevelValue":"R"}}},{"storeId":164,"displayName":"Leek Derby Street","long":-2.024545,"lat":53.1059,"postcode":"ST13 6HT","street":"13 Derby Street","town":"Leek","phoneNumber":"01538382435","stockLevels":{"26":{"itemName":"Elvanse Adult","itemStrength":"30mg","stockLevelValue":"R"}}},{"storeId":165,"displayName":"Biggleswade Market Square","long":-0.2644963,"lat":52.08626,"postcode":"SG18 8AS","street":"9-10 Market Square","town":"Biggleswade","phoneNumber":"01767313278","stockLevels":{"26":{"itemName":"Elvanse Adult","itemStrength":"30mg","stockLevelValue":"R"}}},{"storeId":166,"displayName":"Haverhill High Street","long":0.439342,"lat":52.08238,"postcode":"CB9 8AD","street":"15 High Street","town":"Haverhill","phoneNumber":"01440702058","stockLevels":{"26":{"itemName":"Elvanse Adult","itemStrength":"30mg","stockLevelValue":"R"}}},{"storeId":167,"displayName":"St Ives Sheep Market","long":-0.07182743,"lat":52.32328,"postcode":"PE27 5AH","street":"5-6 Sheep Market","town":"St. Ives","phoneNumber":"01480461886","stockLevels":{"26":{"itemName":"Elvanse Adult","itemStrength":"30mg","stockLevelValue":"R"}}},{"storeId":168,"displayName":"Newcastle Under Lyme High Street","long":-2.228456,"lat":53.01122,"postcode":"ST5 1QL","street":"60-62 High Street","town":"Newcastle","phoneNumber":"01782616321","stockLevels":{"26":{"itemName":"Elvanse Adult","itemStrength":"30mg","stockLevelValue":"R"}}},{"storeId":169,"displayName":"Uttoxeter High Street","long":-1.865244,"lat":52.89935,"postcode":"ST14 7HT","street":"6 High Street","town":"Uttoxeter","phoneNumber":"01889562047","stockLevels":{"26":{"itemName":"Elvanse Adult","itemStrength":"30mg","stockLevelValue":"R"}}},{"storeId":170,"displayName":"Coalville New Broadway","long":-1.373718,"lat":52.72471,"postcode":"LE67 3XJ","street":"9-11 New Broadway","town":"Coalville","phoneNumber":"01530832313","stockLevels":{"26":{"itemName":"Elvanse Adult","itemStrength":"30mg","stockLevelValue":"R"}}},{"storeId":171,"displayName":"Ely Market Street","long":0.2656999,"lat":52.39961,"postcode":"CB7 4PB","street":"6 Market Street","town":"Ely","phoneNumber":"01353661461","stockLevels":{"26":{"itemName":"Elvanse Adult","itemStrength":"30mg","stockLevelValue":"R"}}},{"storeId":172,"displayName":"Dereham Market Place","long":0.9408799,"lat":52.68188,"postcode":"NR19 2AP","street":"35 Market Place","town":"Dereham","phoneNumber":"01362692793","stockLevels":{"26":{"itemName":"Elvanse Adult","itemStrength":"30mg","stockLevelValue":"R"}}},{"storeId":174,"displayName":"Gorleston On Sea High Street","long":1.727075,"lat":52.57824,"postcode":"NR31 6RQ","street":"1 Coliseum Precinct 138C High Street","town":"Great Yarmouth","phoneNumber":"01493662354","stockLevels":{"26":{"itemName":"Elvanse Adult","itemStrength":"30mg","stockLevelValue":"R"}}},{"storeId":175,"displayName":"Saffron Walden Market Place","long":0.2416113,"lat":52.0241,"postcode":"CB10 1HR","street":"Market Place","town":"Saffron Walden","phoneNumber":"01799522342","stockLevels":{"26":{"itemName":"Elvanse Adult","itemStrength":"30mg","stockLevelValue":"R"}}},{"storeId":176,"displayName":"Sudbury Market Hill","long":0.7302259,"lat":52.03868,"postcode":"CO10 2EA","street":"12-14 Market Hill","town":"Sudbury","phoneNumber":"01787372617","stockLevels":{"26":{"itemName":"Elvanse Adult","itemStrength":"30mg","stockLevelValue":"R"}}},{"storeId":177,"displayName":"March Broad Street","long":0.08856556,"lat":52.55043,"postcode":"PE15 8TP","street":"17-19 Broad Street","town":"March","phoneNumber":"01354652180","stockLevels":{"26":{"itemName":"Elvanse Adult","itemStrength":"30mg","stockLevelValue":"R"}}},{"storeId":178,"displayName":"Stony Stratford High Street","long":-0.8524293,"lat":52.05647,"postcode":"MK11 1AA","street":"43 High Street","town":"Milton Keynes","phoneNumber":"01908561210","stockLevels":{"26":{"itemName":"Elvanse Adult","itemStrength":"30mg","stockLevelValue":"R"}}},{"storeId":179,"displayName":"Downham Market Wales Court","long":0.3769169,"lat":52.60213,"postcode":"PE38 9JZ","street":"11-13 Wales Court","town":"Downham Market","phoneNumber":"01366382345","stockLevels":{"26":{"itemName":"Elvanse Adult","itemStrength":"30mg","stockLevelValue":"R"}}},{"storeId":181,"displayName":"Lichfield Tamworth Street","long":-1.825434,"lat":52.68374,"postcode":"WS13 6JJ","street":"4-8 Tamworth Street","town":"Lichfield","phoneNumber":"01543263149","stockLevels":{"26":{"itemName":"Elvanse Adult","itemStrength":"30mg","stockLevelValue":"R"}}},{"storeId":182,"displayName":"Wisbech Horse Fair","long":0.1617223,"lat":52.66579,"postcode":"PE13 1AR","street":"15 Horse Fair","town":"Wisbech","phoneNumber":"01945583182","stockLevels":{"26":{"itemName":"Elvanse Adult","itemStrength":"30mg","stockLevelValue":"R"}}},{"storeId":183,"displayName":"Stafford Market Square","long":-2.117712,"lat":52.80697,"postcode":"ST16 2BD","street":"10-14 Market Square","town":"Stafford","phoneNumber":"01785251208","stockLevels":{"26":{"itemName":"Elvanse Adult","itemStrength":"30mg","stockLevelValue":"R"}}},{"storeId":185,"displayName":"Newmarket High Street","long":0.4057134,"lat":52.24421,"postcode":"CB8 8JX","street":"82 High Street","town":"Newmarket","phoneNumber":"01638662152","stockLevels":{"26":{"itemName":"Elvanse Adult","itemStrength":"30mg","stockLevelValue":"R"}}},{"storeId":189,"displayName":"Leicester Beaumont Leys","long":-1.166772,"lat":52.66602,"postcode":"LE4 1DG","street":"20-22 Fletcher Mall","town":"Leicester","phoneNumber":"01162352500","stockLevels":{"26":{"itemName":"Elvanse Adult","itemStrength":"30mg","stockLevelValue":"R"}}},{"storeId":190,"displayName":"London Canary Wharf Canada Square","long":-0.01946249,"lat":51.50496,"postcode":"E14 5AX","street":"Unit 14 Canada Square","town":"London","phoneNumber":"02077191178","stockLevels":{"26":{"itemName":"Elvanse Adult","itemStrength":"30mg","stockLevelValue":"R"}}},{"storeId":191,"displayName":"Leicester Gallowtree Gate","long":-1.131763,"lat":52.63505,"postcode":"LE1 1DD","street":"30-36 Gallowtree Gate","town":"Leicester","phoneNumber":"01162621641","stockLevels":{"26":{"itemName":"Elvanse Adult","itemStrength":"30mg","stockLevelValue":"R"}}},{"storeId":193,"displayName":"Tamworth Ankersides Centre","long":-1.693398,"lat":52.63266,"postcode":"B79 7LQ","street":"George Street","town":"Tamworth","phoneNumber":"0182762032","stockLevels":{"26":{"itemName":"Elvanse Adult","itemStrength":"30mg","stockLevelValue":"R"}}},{"storeId":196,"displayName":"Witham Newland Street","long":0.6400647,"lat":51.80009,"postcode":"CM8 2AR","street":"42 Newland Street","town":"Witham","phoneNumber":"01376513613","stockLevels":{"26":{"itemName":"Elvanse Adult","itemStrength":"30mg","stockLevelValue":"R"}}},{"storeId":198,"displayName":"Felixstowe Hamilton Road","long":1.352177,"lat":51.96406,"postcode":"IP11 7AD","street":"86 Hamilton Road","town":"Felixstowe","phoneNumber":"01394282022","stockLevels":{"26":{"itemName":"Elvanse Adult","itemStrength":"30mg","stockLevelValue":"R"}}},{"storeId":199,"displayName":"Colchester Lion Walk","long":0.9007114,"lat":51.8883,"postcode":"CO1 1LX","street":"4-6 Lion Walk","town":"Colchester","phoneNumber":"01206577303","stockLevels":{"26":{"itemName":"Elvanse Adult","itemStrength":"30mg","stockLevelValue":"R"}}},{"storeId":200,"displayName":"Coventry Lower Precinct","long":-1.514409,"lat":52.40794,"postcode":"CV1 1DS","street":"49 Lower Precinct","town":"Coventry","phoneNumber":"02476226561","stockLevels":{"26":{"itemName":"Elvanse Adult","itemStrength":"30mg","stockLevelValue":"R"}}},{"storeId":203,"displayName":"Kingswinford Market Street","long":-2.168374,"lat":52.49662,"postcode":"DY6 9JR","street":"16 Market Street","town":"Kingswinford","phoneNumber":"01384401900","stockLevels":{"26":{"itemName":"Elvanse Adult","itemStrength":"30mg","stockLevelValue":"R"}}},{"storeId":210,"displayName":"Birmingham Perry Barr","long":-1.902959,"lat":52.51761,"postcode":"B42 1AA","street":"28 One Stop Retail Park","town":"Birmingham","phoneNumber":"01213444825","stockLevels":{"26":{"itemName":"Elvanse Adult","itemStrength":"30mg","stockLevelValue":"R"}}},{"storeId":211,"displayName":"Newport Caerleon Road","long":-2.982672,"lat":51.5962,"postcode":"NP19 7FW","street":"135 Caerleon Road","town":"Newport","phoneNumber":"01633259170","stockLevels":{"26":{"itemName":"Elvanse Adult","itemStrength":"30mg","stockLevelValue":"R"}}},{"storeId":215,"displayName":"Birmingham Harborne","long":-1.946825,"lat":52.45981,"postcode":"B17 9NR","street":"87-87A High Street","town":"Birmingham","phoneNumber":"01214273118","stockLevels":{"26":{"itemName":"Elvanse Adult","itemStrength":"30mg","stockLevelValue":"R"}}},{"storeId":217,"displayName":"Birmingham Chelmsley Wood Greenwood Way","long":-1.739254,"lat":52.47934,"postcode":"B37 5TL","street":"29-31 Greenwood Way","town":"Birmingham","phoneNumber":"01217706011","stockLevels":{"26":{"itemName":"Elvanse Adult","itemStrength":"30mg","stockLevelValue":"R"}}},{"storeId":218,"displayName":"Birmingham Kings Heath","long":-1.892566,"lat":52.43411,"postcode":"B14 7DG","street":"145-147 High Street","town":"Birmingham","phoneNumber":"01214441016","stockLevels":{"26":{"itemName":"Elvanse Adult","itemStrength":"30mg","stockLevelValue":"R"}}},{"storeId":220,"displayName":"West Bromwich Sandwell Centre","long":-1.991924,"lat":52.5187,"postcode":"B70 7NG","street":"27 Queens Square","town":"West Bromwich","phoneNumber":"01215535502","stockLevels":{"26":{"itemName":"Elvanse Adult","itemStrength":"30mg","stockLevelValue":"R"}}},{"storeId":221,"displayName":"Coventry Coundon","long":-1.526187,"lat":52.41732,"postcode":"CV6 1HQ","street":"94 Moseley Avenue","town":"Coventry","phoneNumber":"02476592298","stockLevels":{"26":{"itemName":"Elvanse Adult","itemStrength":"30mg","stockLevelValue":"R"}}},{"storeId":222,"displayName":"Basingstoke Old Basing Mall","long":-1.08832,"lat":51.2663,"postcode":"RG21 7LW","street":"15 Old Basing Mall","town":"Basingstoke","phoneNumber":"01256351611","stockLevels":{"26":{"itemName":"Elvanse Adult","itemStrength":"30mg","stockLevelValue":"R"}}},{"storeId":223,"displayName":"Manchester Wythenshawe Hale Top Civic Centre","long":-2.261901,"lat":53.37913,"postcode":"M22 5RN","street":"1A Hale Top","town":"Manchester","phoneNumber":"01614371798","stockLevels":{"26":{"itemName":"Elvanse Adult","itemStrength":"30mg","stockLevelValue":"R"}}},{"storeId":224,"displayName":"Merthyr Tydfil St Tydfil Square Shopping Centre","long":-3.380205,"lat":51.74516,"postcode":"CF47 8EL","street":"5 New Market Walk","town":"Merthyr Tydfil","phoneNumber":"01685723088","stockLevels":{"26":{"itemName":"Elvanse Adult","itemStrength":"30mg","stockLevelValue":"R"}}},{"storeId":225,"displayName":"Wolverhampton Dudley Street","long":-2.127622,"lat":52.5845,"postcode":"WV1 3EX","street":"40-42 Dudley Street","town":"Wolverhampton","phoneNumber":"01902427145","stockLevels":{"26":{"itemName":"Elvanse Adult","itemStrength":"30mg","stockLevelValue":"R"}}},{"storeId":229,"displayName":"Holbeach High Street","long":0.01594806,"lat":52.80385,"postcode":"PE12 7DY","street":"27 High Street","town":"Spalding","phoneNumber":"01406422211","stockLevels":{"26":{"itemName":"Elvanse Adult","itemStrength":"30mg","stockLevelValue":"R"}}},{"storeId":232,"displayName":"Walsall Park Place","long":-1.983322,"lat":52.58518,"postcode":"WS1 1NG","street":"58 Park Street","town":"Walsall","phoneNumber":"01922621555","stockLevels":{"26":{"itemName":"Elvanse Adult","itemStrength":"30mg","stockLevelValue":"R"}}},{"storeId":233,"displayName":"Sutton Coldfield Gracechurch Shopping Centre","long":-1.824382,"lat":52.56223,"postcode":"B72 1PD","street":"44-46 Gracechurch Shopping Centre","town":"Sutton Coldfield","phoneNumber":"01213541729","stockLevels":{"26":{"itemName":"Elvanse Adult","itemStrength":"30mg","stockLevelValue":"R"}}},{"storeId":235,"displayName":"Dudley Market place","long":-2.08176,"lat":52.51027,"postcode":"DY1 1PJ","street":"25-26 Market Place","town":"Dudley","phoneNumber":"01384252300","stockLevels":{"26":{"itemName":"Elvanse Adult","itemStrength":"30mg","stockLevelValue":"R"}}},{"storeId":236,"displayName":"Coventry Cannon Park Centre","long":-1.55489,"lat":52.38782,"postcode":"CV4 7EH","street":"11 Cannon Park Centre","town":"Coventry","phoneNumber":"02476417158","stockLevels":{"26":{"itemName":"Elvanse Adult","itemStrength":"30mg","stockLevelValue":"R"}}},{"storeId":237,"displayName":"Stourbridge Ryemarket","long":-2.146336,"lat":52.45594,"postcode":"DY8 1HJ","street":"5 Ryemarket","town":"Stourbridge","phoneNumber":"01384394157","stockLevels":{"26":{"itemName":"Elvanse Adult","itemStrength":"30mg","stockLevelValue":"R"}}},{"storeId":238,"displayName":"Bedworth All Saints Square","long":-1.472466,"lat":52.47969,"postcode":"CV12 8LP","street":"11-15 All Saints Square","town":"Bedworth","phoneNumber":"02476312287","stockLevels":{"26":{"itemName":"Elvanse Adult","itemStrength":"30mg","stockLevelValue":"R"}}},{"storeId":239,"displayName":"Stratford Upon Avon Bridge Street","long":-1.705049,"lat":52.19238,"postcode":"CV37 6AB","street":"11 Bridge Street","town":"Stratford Upon Avon","phoneNumber":"01789292173","stockLevels":{"26":{"itemName":"Elvanse Adult","itemStrength":"30mg","stockLevelValue":"R"}}},{"storeId":240,"displayName":"Maidenhead High Street","long":-0.7212399,"lat":51.523,"postcode":"SL6 1PY","street":"54 High Street","town":"Maidenhead","phoneNumber":"01628671834","stockLevels":{"26":{"itemName":"Elvanse Adult","itemStrength":"30mg","stockLevelValue":"R"}}},{"storeId":241,"displayName":"Witney High Street","long":-1.485036,"lat":51.78527,"postcode":"OX28 6HA","street":"2-8 High Street","town":"Witney","phoneNumber":"01993702213","stockLevels":{"26":{"itemName":"Elvanse Adult","itemStrength":"30mg","stockLevelValue":"R"}}},{"storeId":242,"displayName":"Thame High Street","long":-0.9788514,"lat":51.74747,"postcode":"OX9 2BU","street":"4-5 High Street","town":"Thame","phoneNumber":"01844213882","stockLevels":{"26":{"itemName":"Elvanse Adult","itemStrength":"30mg","stockLevelValue":"R"}}},{"storeId":243,"displayName":"Bristol Broadmead","long":-2.589492,"lat":51.4574,"postcode":"BS1 3EA","street":"59 Broadmead","town":"Bristol","phoneNumber":"01179293631","stockLevels":{"26":{"itemName":"Elvanse Adult","itemStrength":"30mg","stockLevelValue":"R"}}},{"storeId":244,"displayName":"Honiton 123 High Street","long":-3.19052,"lat":50.79949,"postcode":"EX14 1HR","street":"123 High Street","town":"Honiton","phoneNumber":"0140442666","stockLevels":{"26":{"itemName":"Elvanse Adult","itemStrength":"30mg","stockLevelValue":"R"}}},{"storeId":245,"displayName":"Bristol Bishopston","long":-2.592323,"lat":51.47149,"postcode":"BS7 8AD","street":"47-49 Gloucester Road","town":"Bristol","phoneNumber":"01179246076","stockLevels":{"26":{"itemName":"Elvanse Adult","itemStrength":"30mg","stockLevelValue":"R"}}},{"storeId":246,"displayName":"Shirehampton High Street","long":-2.675841,"lat":51.48895,"postcode":"BS11 0DX","street":"39 High Street","town":"Bristol","phoneNumber":"01179823543","stockLevels":{"26":{"itemName":"Elvanse Adult","itemStrength":"30mg","stockLevelValue":"R"}}},{"storeId":247,"displayName":"High Wycombe Eden Walk","long":-0.7522734,"lat":51.62949,"postcode":"HP11 2AW","street":"Eden Walk","town":"High Wycombe","phoneNumber":"01494523128","stockLevels":{"26":{"itemName":"Elvanse Adult","itemStrength":"30mg","stockLevelValue":"R"}}},{"storeId":248,"displayName":"Aylesbury Hale Leys Shopping Centre","long":-0.8114117,"lat":51.81657,"postcode":"HP20 1ST","street":"4 Hale Leys Shopping Centre","town":"Aylesbury","phoneNumber":"01296483661","stockLevels":{"26":{"itemName":"Elvanse Adult","itemStrength":"30mg","stockLevelValue":"R"}}},{"storeId":249,"displayName":"Banbury Castle Quay","long":-1.335009,"lat":52.06277,"postcode":"OX16 5UH","street":"12-14 Castle Quay","town":"Banbury","phoneNumber":"01295262015","stockLevels":{"26":{"itemName":"Elvanse Adult","itemStrength":"30mg","stockLevelValue":"R"}}},{"storeId":251,"displayName":"Leamington Spa Parade","long":-1.535372,"lat":52.2916,"postcode":"CV32 4BL","street":"31 Parade","town":"Leamington Spa","phoneNumber":"01926424945","stockLevels":{"26":{"itemName":"Elvanse Adult","itemStrength":"30mg","stockLevelValue":"R"}}},{"storeId":252,"displayName":"Evesham Bridge Street","long":-1.945962,"lat":52.09246,"postcode":"WR11 4SQ","street":"19-21 Bridge Street","town":"Evesham","phoneNumber":"01386765252","stockLevels":{"26":{"itemName":"Elvanse Adult","itemStrength":"30mg","stockLevelValue":"R"}}},{"storeId":253,"displayName":"Colwyn Bay Station Road","long":-3.726678,"lat":53.29564,"postcode":"LL29 8BU","street":"32-34 Station Road","town":"Colwyn Bay","phoneNumber":"01492532392","stockLevels":{"26":{"itemName":"Elvanse Adult","itemStrength":"30mg","stockLevelValue":"R"}}},{"storeId":254,"displayName":"Gloucester Eastgate Street","long":-2.243659,"lat":51.86348,"postcode":"GL1 1PU","street":"38-46 Eastgate Street","town":"Gloucester","phoneNumber":"01452423501","stockLevels":{"26":{"itemName":"Elvanse Adult","itemStrength":"30mg","stockLevelValue":"R"}}},{"storeId":255,"displayName":"Yate North Walk","long":-2.413574,"lat":51.54077,"postcode":"BS37 4AP","street":"15-17 North Walk","town":"Bristol","phoneNumber":"01454312589","stockLevels":{"26":{"itemName":"Elvanse Adult","itemStrength":"30mg","stockLevelValue":"R"}}},{"storeId":256,"displayName":"Redditch Kingfisher Shopping Centre","long":-1.943459,"lat":52.30615,"postcode":"B97 4EY","street":"Kingfisher Walk","town":"Redditch","phoneNumber":"0152768166","stockLevels":{"26":{"itemName":"Elvanse Adult","itemStrength":"30mg","stockLevelValue":"R"}}},{"storeId":258,"displayName":"Bromsgrove High Street","long":-2.06039,"lat":52.33495,"postcode":"B61 8HD","street":"78 High Street","town":"Bromsgrove","phoneNumber":"01527872056","stockLevels":{"26":{"itemName":"Elvanse Adult","itemStrength":"30mg","stockLevelValue":"R"}}},{"storeId":259,"displayName":"Worcester High Street","long":-2.221595,"lat":52.19209,"postcode":"WR1 2EU","street":"72-74 High Street","town":"Worcester","phoneNumber":"01905726868","stockLevels":{"26":{"itemName":"Elvanse Adult","itemStrength":"30mg","stockLevelValue":"R"}}},{"storeId":260,"displayName":"Cheltenham High Street","long":-2.074425,"lat":51.90131,"postcode":"GL50 1DB","street":"197-199 High Street And 12-15 North Stre","town":"Cheltenham","phoneNumber":"01242527084","stockLevels":{"26":{"itemName":"Elvanse Adult","itemStrength":"30mg","stockLevelValue":"R"}}},{"storeId":261,"displayName":"Stroud High Street","long":-2.216329,"lat":51.74555,"postcode":"GL5 1AS","street":"57 High Street","town":"Stroud","phoneNumber":"01453764292","stockLevels":{"26":{"itemName":"Elvanse Adult","itemStrength":"30mg","stockLevelValue":"R"}}},{"storeId":262,"displayName":"Milton Keynes Crown Walk","long":-0.755956,"lat":52.04357,"postcode":"MK9 3AH","street":"18 Crown Walk","town":"Milton Keynes","phoneNumber":"01908607327","stockLevels":{"26":{"itemName":"Elvanse Adult","itemStrength":"30mg","stockLevelValue":"R"}}},{"storeId":263,"displayName":"Barnstaple Roundswell Shopping Centre","long":-4.082882,"lat":51.06722,"postcode":"EX31 3NL","street":"Gratton Way","town":"Barnstaple","phoneNumber":"01271328117","stockLevels":{"26":{"itemName":"Elvanse Adult","itemStrength":"30mg","stockLevelValue":"R"}}},{"storeId":264,"displayName":"Swindon Brunel Plaza","long":-1.785735,"lat":51.56043,"postcode":"SN1 1LF","street":"3 Brunel Plaza","town":"Swindon","phoneNumber":"01793536347","stockLevels":{"26":{"itemName":"Elvanse Adult","itemStrength":"30mg","stockLevelValue":"R"}}},{"storeId":267,"displayName":"Frome Market Place","long":-2.321209,"lat":51.23164,"postcode":"BA11 1AB","street":"10-11 Market Place","town":"Frome","phoneNumber":"01373462402","stockLevels":{"26":{"itemName":"Elvanse Adult","itemStrength":"30mg","stockLevelValue":"G"}}},{"storeId":268,"displayName":"Weston Super Mare High Street","long":-2.978291,"lat":51.34824,"postcode":"BS23 1JA","street":"52-56 High Street","town":"Weston Super Mare","phoneNumber":"01934629068","stockLevels":{"26":{"itemName":"Elvanse Adult","itemStrength":"30mg","stockLevelValue":"R"}}},{"storeId":272,"displayName":"Chester Foregate Street","long":-2.886769,"lat":53.19187,"postcode":"CH1 1NA","street":"47-55 Foregate Street","town":"Chester","phoneNumber":"01244328421","stockLevels":{"26":{"itemName":"Elvanse Adult","itemStrength":"30mg","stockLevelValue":"G"}}},{"storeId":274,"displayName":"Shrewsbury Pride Hill","long":-2.754519,"lat":52.70887,"postcode":"SY1 1DD","street":"7-9 Pride Hill","town":"Shrewsbury","phoneNumber":"01743351311","stockLevels":{"26":{"itemName":"Elvanse Adult","itemStrength":"30mg","stockLevelValue":"R"}}},{"storeId":275,"displayName":"Oswestry Church Street","long":-3.055484,"lat":52.85858,"postcode":"SY11 2SU","street":"5-7 Church Street","town":"Oswestry","phoneNumber":"01691659249","stockLevels":{"26":{"itemName":"Elvanse Adult","itemStrength":"30mg","stockLevelValue":"R"}}},{"storeId":276,"displayName":"Hereford High Street","long":-2.71713,"lat":52.0563,"postcode":"HR4 9AA","street":"42-43 Bewell Street","town":"Hereford","phoneNumber":"01432274941","stockLevels":{"26":{"itemName":"Elvanse Adult","itemStrength":"30mg","stockLevelValue":"G"}}},{"storeId":277,"displayName":"Telford Wellington","long":-2.516994,"lat":52.70068,"postcode":"TF1 1LU","street":"21-25 New Street","town":"Telford","phoneNumber":"01952223468","stockLevels":{"26":{"itemName":"Elvanse Adult","itemStrength":"30mg","stockLevelValue":"R"}}},{"storeId":280,"displayName":"Swansea The Quadrant Centre","long":-3.944377,"lat":51.61842,"postcode":"SA1 3AD","street":"17 The Quadrant","town":"Swansea","phoneNumber":"01792643461","stockLevels":{"26":{"itemName":"Elvanse Adult","itemStrength":"30mg","stockLevelValue":"A"}}},{"storeId":282,"displayName":"Henley On Thames Bell Street","long":-0.9050355,"lat":51.53857,"postcode":"RG9 2BA","street":"5-7 Bell St","town":"Henley-on-Thames","phoneNumber":"01491574132","stockLevels":{"26":{"itemName":"Elvanse Adult","itemStrength":"30mg","stockLevelValue":"G"}}},{"storeId":283,"displayName":"Llanelli Vaughan Street","long":-4.161422,"lat":51.68248,"postcode":"SA15 3US","street":"1-3 Vaughan Street","town":"Llanelli","phoneNumber":"01554778381","stockLevels":{"26":{"itemName":"Elvanse Adult","itemStrength":"30mg","stockLevelValue":"R"}}},{"storeId":285,"displayName":"Aberdare Commercial Street","long":-3.4436,"lat":51.71363,"postcode":"CF44 7RW","street":"11 Commercial Street","town":"Aberdare","phoneNumber":"01685872235","stockLevels":{"26":{"itemName":"Elvanse Adult","itemStrength":"30mg","stockLevelValue":"R"}}},{"storeId":286,"displayName":"Pontypridd Taff Street","long":-3.34005,"lat":51.60249,"postcode":"CF37 4SU","street":"82-84 Taff Street","town":"Pontypridd","phoneNumber":"01443407954","stockLevels":{"26":{"itemName":"Elvanse Adult","itemStrength":"30mg","stockLevelValue":"R"}}},{"storeId":290,"displayName":"Neath Water Street","long":-3.80228,"lat":51.66294,"postcode":"SA11 3EP","street":"4-6 Water Street","town":"Neath","phoneNumber":"01639643201","stockLevels":{"26":{"itemName":"Elvanse Adult","itemStrength":"30mg","stockLevelValue":"R"}}},{"storeId":291,"displayName":"Port Talbot Aberfan Centre","long":-3.785456,"lat":51.59689,"postcode":"SA13 1PB","street":"Aberafan Centre","town":"Port Talbot","phoneNumber":"01639883809","stockLevels":{"26":{"itemName":"Elvanse Adult","itemStrength":"30mg","stockLevelValue":"R"}}},{"storeId":292,"displayName":"Newport Commercial Street","long":-2.995462,"lat":51.58622,"postcode":"NP20 1UE","street":"155-156 Commercial Street","town":"Newport","phoneNumber":"01633251212","stockLevels":{"26":{"itemName":"Elvanse Adult","itemStrength":"30mg","stockLevelValue":"R"}}},{"storeId":293,"displayName":"Carmarthen Red Street","long":-4.3082,"lat":51.85713,"postcode":"SA31 1QL","street":"12 Red Street","town":"Carmarthen","phoneNumber":"01267236368","stockLevels":{"26":{"itemName":"Elvanse Adult","itemStrength":"30mg","stockLevelValue":"R"}}},{"storeId":294,"displayName":"Swansea Morriston","long":-3.925393,"lat":51.66475,"postcode":"SA6 8BH","street":"30 Woodfield Street","town":"Swansea","phoneNumber":"01792771029","stockLevels":{"26":{"itemName":"Elvanse Adult","itemStrength":"30mg","stockLevelValue":"R"}}},{"storeId":295,"displayName":"Barry Holton Road","long":-3.266117,"lat":51.40647,"postcode":"CF63 4SW","street":"121-125 Holton Road","town":"Barry","phoneNumber":"01446735280","stockLevels":{"26":{"itemName":"Elvanse Adult","itemStrength":"30mg","stockLevelValue":"R"}}},{"storeId":296,"displayName":"Bridgend Caroline Street","long":-3.5779,"lat":51.50583,"postcode":"CF31 1DQ","street":"8 Caroline Street","town":"Bridgend","phoneNumber":"01656659221","stockLevels":{"26":{"itemName":"Elvanse Adult","itemStrength":"30mg","stockLevelValue":"R"}}},{"storeId":297,"displayName":"Caernarfon Pool Lane","long":-4.271513,"lat":53.1396,"postcode":"LL55 2AL","street":"1-3 Pool Lane","town":"Caernarfon","phoneNumber":"01286673089","stockLevels":{"26":{"itemName":"Elvanse Adult","itemStrength":"30mg","stockLevelValue":"R"}}},{"storeId":299,"displayName":"Holyhead Market Street","long":-4.633541,"lat":53.30991,"postcode":"LL65 1UN","street":"29 Market Street","town":"Holyhead","phoneNumber":"01407762794","stockLevels":{"26":{"itemName":"Elvanse Adult","itemStrength":"30mg","stockLevelValue":"R"}}},{"storeId":300,"displayName":"Telford Shopping Centre","long":-2.446275,"lat":52.67627,"postcode":"TF3 4AU","street":"4-10 North Sherwood Street","town":"Telford","phoneNumber":"01952291351","stockLevels":{"26":{"itemName":"Elvanse Adult","itemStrength":"30mg","stockLevelValue":"R"}}},{"storeId":301,"displayName":"Taunton High Street","long":-3.10371,"lat":51.01378,"postcode":"TA1 3PT","street":"64-65 High St","town":"Taunton","phoneNumber":"01823276061","stockLevels":{"26":{"itemName":"Elvanse Adult","itemStrength":"30mg","stockLevelValue":"R"}}},{"storeId":304,"displayName":"Devizes The Brittox","long":-1.993788,"lat":51.3522,"postcode":"SN10 1AJ","street":"14-15 The Brittox","town":"Devizes","phoneNumber":"01380722022","stockLevels":{"26":{"itemName":"Elvanse Adult","itemStrength":"30mg","stockLevelValue":"R"}}},{"storeId":305,"displayName":"Yeovil Middle Street","long":-2.629668,"lat":50.94152,"postcode":"BA20 1LS","street":"37 Middle St","town":"Yeovil","phoneNumber":"01935426673","stockLevels":{"26":{"itemName":"Elvanse Adult","itemStrength":"30mg","stockLevelValue":"R"}}},{"storeId":309,"displayName":"Tiverton Fore Street","long":-3.48797,"lat":50.90223,"postcode":"EX16 6LN","street":"7 Fore St","town":"Tiverton","phoneNumber":"01884252144","stockLevels":{"26":{"itemName":"Elvanse Adult","itemStrength":"30mg","stockLevelValue":"R"}}},{"storeId":310,"displayName":"Exeter High Street","long":-3.527942,"lat":50.72551,"postcode":"EX4 3QD","street":"250-251 High Street","town":"Exeter","phoneNumber":"01392432244","stockLevels":{"26":{"itemName":"Elvanse Adult","itemStrength":"30mg","stockLevelValue":"R"}}},{"storeId":311,"displayName":"Exmouth Magnolia Walk","long":-3.412311,"lat":50.61978,"postcode":"EX8 1HB","street":"21 Magnolia Walk","town":"Exmouth","phoneNumber":"01395275445","stockLevels":{"26":{"itemName":"Elvanse Adult","itemStrength":"30mg","stockLevelValue":"R"}}},{"storeId":313,"displayName":"Paignton Victoria Street","long":-3.566503,"lat":50.4355,"postcode":"TQ4 5DN","street":"12-14 Victoria St","town":"Paignton","phoneNumber":"01803559180","stockLevels":{"26":{"itemName":"Elvanse Adult","itemStrength":"30mg","stockLevelValue":"R"}}},{"storeId":314,"displayName":"Teignmouth Wellington Street","long":-3.495029,"lat":50.54636,"postcode":"TQ14 8HH","street":"5 Wellington St","town":"Teignmouth","phoneNumber":"01626772277","stockLevels":{"26":{"itemName":"Elvanse Adult","itemStrength":"30mg","stockLevelValue":"R"}}},{"storeId":315,"displayName":"Bridgwater Fore Street","long":-3.002611,"lat":51.12872,"postcode":"TA6 3NG","street":"34-38 Fore St","town":"Bridgwater","phoneNumber":"01278422011","stockLevels":{"26":{"itemName":"Elvanse Adult","itemStrength":"30mg","stockLevelValue":"R"}}},{"storeId":317,"displayName":"Truro Pydar Street","long":-5.053054,"lat":50.26459,"postcode":"TR1 2BD","street":"94 Pydar St","town":"Truro","phoneNumber":"01872272810","stockLevels":{"26":{"itemName":"Elvanse Adult","itemStrength":"30mg","stockLevelValue":"R"}}},{"storeId":318,"displayName":"Plymouth 59 Mutley Plain","long":-4.133747,"lat":50.38232,"postcode":"PL4 6JH","street":"59 Mutley Plain","town":"Plymouth","phoneNumber":"01752663590","stockLevels":{"26":{"itemName":"Elvanse Adult","itemStrength":"30mg","stockLevelValue":"R"}}},{"storeId":319,"displayName":"Barnstaple High Street","long":-4.060722,"lat":51.08086,"postcode":"EX31 1HX","street":"69-70 High Street","town":"Barnstaple","phoneNumber":"01271326772","stockLevels":{"26":{"itemName":"Elvanse Adult","itemStrength":"30mg","stockLevelValue":"R"}}},{"storeId":320,"displayName":"Ebbw Vale Market Street","long":-3.207225,"lat":51.77983,"postcode":"NP23 6HL","street":"11 Market St","town":"Ebbw Vale","phoneNumber":"01495302159","stockLevels":{"26":{"itemName":"Elvanse Adult","itemStrength":"30mg","stockLevelValue":"R"}}},{"storeId":322,"displayName":"Cardiff Albany Road","long":-3.168046,"lat":51.49377,"postcode":"CF24 3LN","street":"77-79 Albany Rd","town":"Cardiff","phoneNumber":"02920483043","stockLevels":{"26":{"itemName":"Elvanse Adult","itemStrength":"30mg","stockLevelValue":"R"}}},{"storeId":323,"displayName":"Cardiff Queen Street","long":-3.176533,"lat":51.48156,"postcode":"CF10 2RG","street":"36 Queen St","town":"Cardiff","phoneNumber":"02920231291","stockLevels":{"26":{"itemName":"Elvanse Adult","itemStrength":"30mg","stockLevelValue":"R"}}},{"storeId":324,"displayName":"Cardiff Cowbridge Road East","long":-3.199209,"lat":51.48134,"postcode":"CF11 9AL","street":"213-215 Cowbridge Road East","town":"Cardiff","phoneNumber":"02920225491","stockLevels":{"26":{"itemName":"Elvanse Adult","itemStrength":"30mg","stockLevelValue":"R"}}},{"storeId":325,"displayName":"Birmingham Acocks Green","long":-1.822738,"lat":52.44657,"postcode":"B27 6BH","street":"1104 Warwick Rd","town":"BIRMINGHAM","phoneNumber":"01217060052","stockLevels":{"26":{"itemName":"Elvanse Adult","itemStrength":"30mg","stockLevelValue":"R"}}},{"storeId":326,"displayName":"Tewkesbury High Street","long":-2.156186,"lat":51.99516,"postcode":"GL20 5JZ","street":"92 High St","town":"Tewkesbury","phoneNumber":"01684292122","stockLevels":{"26":{"itemName":"Elvanse Adult","itemStrength":"30mg","stockLevelValue":"R"}}},{"storeId":328,"displayName":"Pembroke Dock Dimond Street","long":-4.94207,"lat":51.69371,"postcode":"SA72 6AH","street":"8-10 Dimond St","town":"Pembroke Dock","phoneNumber":"01646622429","stockLevels":{"26":{"itemName":"Elvanse Adult","itemStrength":"30mg","stockLevelValue":"R"}}},{"storeId":330,"displayName":"Oxford Cornmarket Street","long":-1.257737,"lat":51.75256,"postcode":"OX1 3HL","street":"8-10 Cornmarket Street","town":"Oxford","phoneNumber":"01865247461","stockLevels":{"26":{"itemName":"Elvanse Adult","itemStrength":"30mg","stockLevelValue":"R"}}},{"storeId":331,"displayName":"Cardiff Penarth","long":-3.175394,"lat":51.43893,"postcode":"CF64 1YJ","street":"24 Windsor Rd","town":"Penarth","phoneNumber":"02920707710","stockLevels":{"26":{"itemName":"Elvanse Adult","itemStrength":"30mg","stockLevelValue":"R"}}},{"storeId":332,"displayName":"Abergavenny Cross Street","long":-3.018213,"lat":51.82156,"postcode":"NP7 5EH","street":"2 Cross Street","town":"Abergavenny","phoneNumber":"01873853207","stockLevels":{"26":{"itemName":"Elvanse Adult","itemStrength":"30mg","stockLevelValue":"R"}}},{"storeId":333,"displayName":"Tenby High Street","long":-4.69995,"lat":51.67215,"postcode":"SA70 7HD","street":"High St","town":"Tenby","phoneNumber":"01834842120","stockLevels":{"26":{"itemName":"Elvanse Adult","itemStrength":"30mg","stockLevelValue":"R"}}},{"storeId":335,"displayName":"Solihull Mell Square","long":-1.776413,"lat":52.41331,"postcode":"B91 3AZ","street":"7 Mell Sq","town":"Solihull","phoneNumber":"01217057553","stockLevels":{"26":{"itemName":"Elvanse Adult","itemStrength":"30mg","stockLevelValue":"R"}}},{"storeId":337,"displayName":"Pontypool George Street","long":-3.042464,"lat":51.70362,"postcode":"NP4 6LR","street":"4 George St","town":"Pontypool","phoneNumber":"01495762727","stockLevels":{"26":{"itemName":"Elvanse Adult","itemStrength":"30mg","stockLevelValue":"R"}}},{"storeId":340,"displayName":"Porthcawl John Street","long":-3.704179,"lat":51.47831,"postcode":"CF36 3BD","street":"72-74 John St","town":"Porthcawl","phoneNumber":"01656782508","stockLevels":{"26":{"itemName":"Elvanse Adult","itemStrength":"30mg","stockLevelValue":"R"}}},{"storeId":341,"displayName":"Treorchy High Street","long":-3.504987,"lat":51.65951,"postcode":"CF42 6AT","street":"203 High St","town":"Treorchy","phoneNumber":"01443772240","stockLevels":{"26":{"itemName":"Elvanse Adult","itemStrength":"30mg","stockLevelValue":"R"}}},{"storeId":342,"displayName":"Blackwood Market Place","long":-3.195755,"lat":51.66612,"postcode":"NP12 1AU","street":"The Market Pl","town":"Blackwood","phoneNumber":"01495225208","stockLevels":{"26":{"itemName":"Elvanse Adult","itemStrength":"30mg","stockLevelValue":"R"}}},{"storeId":345,"displayName":"Ludlow Bull Ring","long":-2.717334,"lat":52.3687,"postcode":"SY8 1AA","street":"34 Bull Ring","town":"Ludlow","phoneNumber":"01584872548","stockLevels":{"26":{"itemName":"Elvanse Adult","itemStrength":"30mg","stockLevelValue":"R"}}},{"storeId":346,"displayName":"Oxford Headington London Road","long":-1.212694,"lat":51.75948,"postcode":"OX3 9AJ","street":"96 London Road","town":"Oxford","phoneNumber":"01865762518","stockLevels":{"26":{"itemName":"Elvanse Adult","itemStrength":"30mg","stockLevelValue":"R"}}},{"storeId":349,"displayName":"Buckingham Market Hill","long":-0.9875546,"lat":52.00054,"postcode":"MK18 1JX","street":"11 Market Hill","town":"Buckingham","phoneNumber":"01280813263","stockLevels":{"26":{"itemName":"Elvanse Adult","itemStrength":"30mg","stockLevelValue":"R"}}},{"storeId":350,"displayName":"Bristol Nailsea","long":-2.759624,"lat":51.43353,"postcode":"BS48 1RQ","street":"29-30 Somerset Square","town":"Bristol","phoneNumber":"01275856855","stockLevels":{"26":{"itemName":"Elvanse Adult","itemStrength":"30mg","stockLevelValue":"R"}}},{"storeId":351,"displayName":"Plympton Ridgeway","long":-4.051888,"lat":50.38752,"postcode":"PL7 2ZN","street":"3 St. Stephens Place","town":"Plymouth","phoneNumber":"01752337892","stockLevels":{"26":{"itemName":"Elvanse Adult","itemStrength":"30mg","stockLevelValue":"R"}}},{"storeId":352,"displayName":"Wellington High Street","long":-3.2265,"lat":50.97891,"postcode":"TA21 8RA","street":"6 High St","town":"Wellington","phoneNumber":"01823662170","stockLevels":{"26":{"itemName":"Elvanse Adult","itemStrength":"30mg","stockLevelValue":"R"}}},{"storeId":353,"displayName":"Droitwich St Andrews Square","long":-2.149966,"lat":52.26826,"postcode":"WR9 8TJ","street":"50 St. Andrews Sq","town":"Droitwich","phoneNumber":"01905773219","stockLevels":{"26":{"itemName":"Elvanse Adult","itemStrength":"30mg","stockLevelValue":"R"}}},{"storeId":354,"displayName":"Birmingham Rowley Regis","long":-2.042032,"lat":52.47552,"postcode":"B65 0DR","street":"24 High St","town":"Rowley Regis","phoneNumber":"01215592827","stockLevels":{"26":{"itemName":"Elvanse Adult","itemStrength":"30mg","stockLevelValue":"R"}}},{"storeId":355,"displayName":"Birmingham Kingstanding","long":-1.883828,"lat":52.5523,"postcode":"B44 9SU","street":"631-633 Kingstanding Rd","town":"BIRMINGHAM","phoneNumber":"01213543800","stockLevels":{"26":{"itemName":"Elvanse Adult","itemStrength":"30mg","stockLevelValue":"R"}}},{"storeId":356,"displayName":"Sherborne Cheap Street","long":-2.515444,"lat":50.94755,"postcode":"DT9 3BA","street":"29 Cheap St","town":"Sherborne","phoneNumber":"01935812345","stockLevels":{"26":{"itemName":"Elvanse Adult","itemStrength":"30mg","stockLevelValue":"R"}}},{"storeId":358,"displayName":"Melksham High Street","long":-2.138296,"lat":51.3732,"postcode":"SN12 6JY","street":"19 High St","town":"Melksham","phoneNumber":"01225703139","stockLevels":{"26":{"itemName":"Elvanse Adult","itemStrength":"30mg","stockLevelValue":"R"}}},{"storeId":361,"displayName":"Oxford Cowley Road","long":-1.23508,"lat":51.74743,"postcode":"OX4 1UT","street":"151A Cowley Rd","town":"Oxford","phoneNumber":"01865243633","stockLevels":{"26":{"itemName":"Elvanse Adult","itemStrength":"30mg","stockLevelValue":"R"}}},{"storeId":362,"displayName":"Leominster Corn Square","long":-2.737759,"lat":52.22723,"postcode":"HR6 8LR","street":"18 Corn Sq","town":"Leominster","phoneNumber":"01568612721","stockLevels":{"26":{"itemName":"Elvanse Adult","itemStrength":"30mg","stockLevelValue":"R"}}},{"storeId":363,"displayName":"Warwick Westgate House","long":-1.591431,"lat":52.28126,"postcode":"CV34 4DH","street":"1 Market St","town":"Warwick","phoneNumber":"01926491927","stockLevels":{"26":{"itemName":"Elvanse Adult","itemStrength":"30mg","stockLevelValue":"R"}}},{"storeId":364,"displayName":"Welshpool Broad Street","long":-3.147655,"lat":52.66004,"postcode":"SY21 7SD","street":"16-17 Broad St","town":"Welshpool","phoneNumber":"01938552152","stockLevels":{"26":{"itemName":"Elvanse Adult","itemStrength":"30mg","stockLevelValue":"R"}}},{"storeId":365,"displayName":"Torquay Union Street","long":-3.529677,"lat":50.46642,"postcode":"TQ2 5PS","street":"66-68 Union St","town":"Torquay","phoneNumber":"01803292708","stockLevels":{"26":{"itemName":"Elvanse Adult","itemStrength":"30mg","stockLevelValue":"R"}}},{"storeId":366,"displayName":"Newtown High Street","long":-3.316052,"lat":52.51493,"postcode":"SY16 2NU","street":"20-21 High St","town":"Newtown","phoneNumber":"01686626241","stockLevels":{"26":{"itemName":"Elvanse Adult","itemStrength":"30mg","stockLevelValue":"R"}}},{"storeId":367,"displayName":"Whitchurch Watergate Street","long":-2.683454,"lat":52.96857,"postcode":"SY13 1DW","street":"10-12 Watergate St","town":"Whitchurch","phoneNumber":"01948662060","stockLevels":{"26":{"itemName":"Elvanse Adult","itemStrength":"30mg","stockLevelValue":"R"}}},{"storeId":368,"displayName":"Newport High Street","long":-2.377452,"lat":52.76823,"postcode":"TF10 7AQ","street":"50-52 High St","town":"Newport","phoneNumber":"01952811391","stockLevels":{"26":{"itemName":"Elvanse Adult","itemStrength":"30mg","stockLevelValue":"R"}}},{"storeId":371,"displayName":"Wells High Street","long":-2.646364,"lat":51.20882,"postcode":"BA5 2AA","street":"19-21 High St","town":"Wells","phoneNumber":"01749673138","stockLevels":{"26":{"itemName":"Elvanse Adult","itemStrength":"30mg","stockLevelValue":"R"}}},{"storeId":372,"displayName":"Plymouth Plymstock","long":-4.091738,"lat":50.35989,"postcode":"PL9 7AU","street":"20 The Broadway","town":"Plymouth","phoneNumber":"01752402372","stockLevels":{"26":{"itemName":"Elvanse Adult","itemStrength":"30mg","stockLevelValue":"R"}}},{"storeId":373,"displayName":"Sutton Coldfield Birmingham Road","long":-1.827286,"lat":52.53632,"postcode":"B72 1YH","street":"352-354 Birmingham Rd","town":"Sutton Coldfield","phoneNumber":"01213731355","stockLevels":{"26":{"itemName":"Elvanse Adult","itemStrength":"30mg","stockLevelValue":"R"}}},{"storeId":375,"displayName":"St Austell Fore Street","long":-4.793895,"lat":50.33833,"postcode":"PL25 5EP","street":"29 Fore St","town":"St. Austell","phoneNumber":"0172672112","stockLevels":{"26":{"itemName":"Elvanse Adult","itemStrength":"30mg","stockLevelValue":"R"}}},{"storeId":380,"displayName":"Rhyl High Street","long":-3.490933,"lat":53.32175,"postcode":"LL18 1EN","street":"49-51 High St","town":"Rhyl","phoneNumber":"01745344147","stockLevels":{"26":{"itemName":"Elvanse Adult","itemStrength":"30mg","stockLevelValue":"R"}}},{"storeId":384,"displayName":"Chard Fore Street","long":-2.965247,"lat":50.87293,"postcode":"TA20 1PH","street":"5 Fore St","town":"Chard","phoneNumber":"0146063114","stockLevels":{"26":{"itemName":"Elvanse Adult","itemStrength":"30mg","stockLevelValue":"R"}}},{"storeId":385,"displayName":"Glasgow Central Station","long":-4.258492,"lat":55.85974,"postcode":"G1 3SQ","street":"Central Station","town":"Glasgow","phoneNumber":"01412217107","stockLevels":{"26":{"itemName":"Elvanse Adult","itemStrength":"30mg","stockLevelValue":"R"}}},{"storeId":386,"displayName":"Dartmouth The Quay","long":-3.578476,"lat":50.35132,"postcode":"TQ6 9PS","street":"5-6 The Quay","town":"Dartmouth","phoneNumber":"01803832742","stockLevels":{"26":{"itemName":"Elvanse Adult","itemStrength":"30mg","stockLevelValue":"R"}}},{"storeId":388,"displayName":"Kingsbridge Prince Of Wales Road","long":-3.777182,"lat":50.2835,"postcode":"TQ7 1DX","street":"Prince of Wales Rd","town":"Kingsbridge","phoneNumber":"01548852354","stockLevels":{"26":{"itemName":"Elvanse Adult","itemStrength":"30mg","stockLevelValue":"R"}}},{"storeId":389,"displayName":"Penzance Market Jew Street","long":-5.534997,"lat":50.11941,"postcode":"TR18 2LE","street":"100-102 Market Jew St","town":"Penzance","phoneNumber":"01736362135","stockLevels":{"26":{"itemName":"Elvanse Adult","itemStrength":"30mg","stockLevelValue":"R"}}},{"storeId":390,"displayName":"Plymouth Drakes Circus","long":-4.139726,"lat":50.37336,"postcode":"PL1 1EA","street":"1 Drake Circus","town":"Plymouth","phoneNumber":"01752266271","stockLevels":{"26":{"itemName":"Elvanse Adult","itemStrength":"30mg","stockLevelValue":"R"}}},{"storeId":391,"displayName":"Newquay Bank Street","long":-5.084838,"lat":50.41371,"postcode":"TR7 1DH","street":"15 Bank St","town":"Newquay","phoneNumber":"01637872014","stockLevels":{"26":{"itemName":"Elvanse Adult","itemStrength":"30mg","stockLevelValue":"R"}}},{"storeId":392,"displayName":"Bridgnorth High Street","long":-2.420303,"lat":52.53589,"postcode":"WV16 4DB","street":"30-31 High St","town":"Bridgnorth","phoneNumber":"01746763127","stockLevels":{"26":{"itemName":"Elvanse Adult","itemStrength":"30mg","stockLevelValue":"R"}}},{"storeId":394,"displayName":"Cirencester Cricklade Street","long":-1.967209,"lat":51.71582,"postcode":"GL7 1HY","street":"39-43 Cricklade St","town":"Cirencester","phoneNumber":"01285653019","stockLevels":{"26":{"itemName":"Elvanse Adult","itemStrength":"30mg","stockLevelValue":"R"}}},{"storeId":395,"displayName":"Sidmouth Fore Street","long":-3.237544,"lat":50.67949,"postcode":"EX10 8AQ","street":"Fore St","town":"Sidmouth","phoneNumber":"01395513307","stockLevels":{"26":{"itemName":"Elvanse Adult","itemStrength":"30mg","stockLevelValue":"R"}}},{"storeId":396,"displayName":"Falmouth Market Street","long":-5.070549,"lat":50.15604,"postcode":"TR11 3AB","street":"47-49 Market St","town":"Falmouth","phoneNumber":"01326312373","stockLevels":{"26":{"itemName":"Elvanse Adult","itemStrength":"30mg","stockLevelValue":"R"}}},{"storeId":398,"displayName":"Swindon Wood Street","long":-1.775879,"lat":51.55233,"postcode":"SN1 4AN","street":"35 Wood St","town":"Swindon","phoneNumber":"01793522941","stockLevels":{"26":{"itemName":"Elvanse Adult","itemStrength":"30mg","stockLevelValue":"R"}}},{"storeId":399,"displayName":"Chippenham High Street","long":-2.115655,"lat":51.45846,"postcode":"SN15 3ER","street":"8-9 High St","town":"Chippenham","phoneNumber":"01249652087","stockLevels":{"26":{"itemName":"Elvanse Adult","itemStrength":"30mg","stockLevelValue":"R"}}},{"storeId":401,"displayName":"Tavistock Duke Street","long":-4.144143,"lat":50.55061,"postcode":"PL19 0BA","street":"5-6 Duke St","town":"Tavistock","phoneNumber":"01822612609","stockLevels":{"26":{"itemName":"Elvanse Adult","itemStrength":"30mg","stockLevelValue":"R"}}},{"storeId":402,"displayName":"Swindon Wootton Bassett","long":-1.903555,"lat":51.54226,"postcode":"SN4 7AY","street":"133 High Street","town":"Swindon","phoneNumber":"01793852364","stockLevels":{"26":{"itemName":"Elvanse Adult","itemStrength":"30mg","stockLevelValue":"R"}}},{"storeId":403,"displayName":"Lyme Regis Broad Street","long":-2.934975,"lat":50.72508,"postcode":"DT7 3QF","street":"45 Broad St","town":"Lyme Regis","phoneNumber":"01297442026","stockLevels":{"26":{"itemName":"Elvanse Adult","itemStrength":"30mg","stockLevelValue":"R"}}},{"storeId":405,"displayName":"Bodmin Fore Street","long":-4.721195,"lat":50.47104,"postcode":"PL31 2HL","street":"34 Fore St","town":"Bodmin","phoneNumber":"0120872836","stockLevels":{"26":{"itemName":"Elvanse Adult","itemStrength":"30mg","stockLevelValue":"R"}}},{"storeId":411,"displayName":"Okehampton Fore Street","long":-4.002449,"lat":50.73907,"postcode":"EX20 1HB","street":"27-28 Fore St","town":"Okehampton","phoneNumber":"01837543220","stockLevels":{"26":{"itemName":"Elvanse Adult","itemStrength":"30mg","stockLevelValue":"R"}}},{"storeId":412,"displayName":"Dursley Parsonage Street","long":-2.355295,"lat":51.68156,"postcode":"GL11 4AA","street":"70-72 Parsonage St","town":"Dursley","phoneNumber":"01453542275","stockLevels":{"26":{"itemName":"Elvanse Adult","itemStrength":"30mg","stockLevelValue":"R"}}},{"storeId":415,"displayName":"Helston Meneage Street","long":-5.272268,"lat":50.09973,"postcode":"TR13 8QY","street":"40 Meneage St","town":"Helston","phoneNumber":"01326572030","stockLevels":{"26":{"itemName":"Elvanse Adult","itemStrength":"30mg","stockLevelValue":"R"}}},{"storeId":417,"displayName":"Burnham On Sea High Street","long":-2.997365,"lat":51.23468,"postcode":"TA8 1NX","street":"15-17 High St","town":"Burnham-on-Sea","phoneNumber":"01278782029","stockLevels":{"26":{"itemName":"Elvanse Adult","itemStrength":"30mg","stockLevelValue":"R"}}},{"storeId":419,"displayName":"Malmesbury High Street","long":-2.098119,"lat":51.58305,"postcode":"SN16 9AA","street":"39 High St","town":"Malmesbury","phoneNumber":"01666823130","stockLevels":{"26":{"itemName":"Elvanse Adult","itemStrength":"30mg","stockLevelValue":"R"}}},{"storeId":420,"displayName":"Keynsham High Street","long":-2.498821,"lat":51.41548,"postcode":"BS31 1DX","street":"40 High Street","town":"Bristol","phoneNumber":"01179863247","stockLevels":{"26":{"itemName":"Elvanse Adult","itemStrength":"30mg","stockLevelValue":"R"}}},{"storeId":421,"displayName":"Mold 19-21 High Street","long":-3.142132,"lat":53.16719,"postcode":"CH7 1AZ","street":"19-21 High St","town":"Mold","phoneNumber":"01352700325","stockLevels":{"26":{"itemName":"Elvanse Adult","itemStrength":"30mg","stockLevelValue":"R"}}},{"storeId":424,"displayName":"Bridport West Street","long":-2.75849,"lat":50.73388,"postcode":"DT6 3QJ","street":"3-5 West St","town":"Bridport","phoneNumber":"01308422475","stockLevels":{"26":{"itemName":"Elvanse Adult","itemStrength":"30mg","stockLevelValue":"R"}}},{"storeId":425,"displayName":"Market Drayton Cheshire Street","long":-2.485755,"lat":52.9055,"postcode":"TF9 1PR","street":"48-50 Cheshire Street","town":"Market Drayton","phoneNumber":"01630652660","stockLevels":{"26":{"itemName":"Elvanse Adult","itemStrength":"30mg","stockLevelValue":"R"}}},{"storeId":427,"displayName":"Bude Belle Vue","long":-4.544777,"lat":50.82998,"postcode":"EX23 8JL","street":"20 Belle Vue","town":"Bude","phoneNumber":"01288352906","stockLevels":{"26":{"itemName":"Elvanse Adult","itemStrength":"30mg","stockLevelValue":"R"}}},{"storeId":428,"displayName":"Swansea Mumbles","long":-3.997876,"lat":51.57484,"postcode":"SA3 4DN","street":"133 Mumbles Road","town":"Swansea","phoneNumber":"01792366195","stockLevels":{"26":{"itemName":"Elvanse Adult","itemStrength":"30mg","stockLevelValue":"R"}}},{"storeId":432,"displayName":"Ross On Wye Market Place","long":-2.58405,"lat":51.91451,"postcode":"HR9 5NX","street":"5 Market Pl","town":"Ross-on-Wye","phoneNumber":"01989562798","stockLevels":{"26":{"itemName":"Elvanse Adult","itemStrength":"30mg","stockLevelValue":"R"}}},{"storeId":433,"displayName":"Warminster Market Place","long":-2.179415,"lat":51.2047,"postcode":"BA12 9AZ","street":"39 Market Pl","town":"Warminster","phoneNumber":"01985212303","stockLevels":{"26":{"itemName":"Elvanse Adult","itemStrength":"30mg","stockLevelValue":"R"}}},{"storeId":434,"displayName":"Denbigh High Street","long":-3.4192,"lat":53.18329,"postcode":"LL16 3RY","street":"36-38 High St","town":"Denbigh","phoneNumber":"01745812860","stockLevels":{"26":{"itemName":"Elvanse Adult","itemStrength":"30mg","stockLevelValue":"R"}}},{"storeId":438,"displayName":"Christchurch Saxon Square","long":-1.776947,"lat":50.73526,"postcode":"BH23 1QB","street":"23 Saxon Sq","town":"Christchurch","phoneNumber":"01202483034","stockLevels":{"26":{"itemName":"Elvanse Adult","itemStrength":"30mg","stockLevelValue":"R"}}},{"storeId":439,"displayName":"Minehead The Parade","long":-3.477303,"lat":51.20569,"postcode":"TA24 5UG","street":"14-16 The Parade","town":"Minehead","phoneNumber":"01643702004","stockLevels":{"26":{"itemName":"Elvanse Adult","itemStrength":"30mg","stockLevelValue":"R"}}},{"storeId":441,"displayName":"Crewkerne Market Street","long":-2.796102,"lat":50.88354,"postcode":"TA18 7LA","street":"8-10 MARKET STREET","town":"CREWKERNE","phoneNumber":"0146072310","stockLevels":{"26":{"itemName":"Elvanse Adult","itemStrength":"30mg","stockLevelValue":"R"}}},{"storeId":443,"displayName":"Llandudno Victoria Centre","long":-3.828946,"lat":53.32286,"postcode":"LL30 2NG","street":"9 Victoria Centre","town":"Llandudno","phoneNumber":"01492876633","stockLevels":{"26":{"itemName":"Elvanse Adult","itemStrength":"30mg","stockLevelValue":"R"}}},{"storeId":444,"displayName":"Ilminster East Street","long":-2.909203,"lat":50.92669,"postcode":"TA19 0AJ","street":"6 East St","town":"Ilminster","phoneNumber":"0146052648","stockLevels":{"26":{"itemName":"Elvanse Adult","itemStrength":"30mg","stockLevelValue":"R"}}},{"storeId":445,"displayName":"Liskeard Bay Tree Hill","long":-4.464355,"lat":50.45356,"postcode":"PL14 4BG","street":"21-22 Bay Tree Hill","town":"Liskeard","phoneNumber":"01579343183","stockLevels":{"26":{"itemName":"Elvanse Adult","itemStrength":"30mg","stockLevelValue":"R"}}},{"storeId":446,"displayName":"Bristol Clifton Down Shopping Centre","long":-2.610753,"lat":51.46401,"postcode":"BS8 2NN","street":"9 Clifton Down Shopping Ctr","town":"Bristol","phoneNumber":"01179742896","stockLevels":{"26":{"itemName":"Elvanse Adult","itemStrength":"30mg","stockLevelValue":"R"}}},{"storeId":447,"displayName":"Crediton High Street","long":-3.658816,"lat":50.79084,"postcode":"EX17 3LQ","street":"126 High St","town":"Crediton","phoneNumber":"01363772062","stockLevels":{"26":{"itemName":"Elvanse Adult","itemStrength":"30mg","stockLevelValue":"R"}}},{"storeId":449,"displayName":"Lampeter Harford Square","long":-4.078604,"lat":52.11314,"postcode":"SA48 7DX","street":"9A Harford Sq","town":"Lampeter","phoneNumber":"01570422568","stockLevels":{"26":{"itemName":"Elvanse Adult","itemStrength":"30mg","stockLevelValue":"R"}}},{"storeId":451,"displayName":"Chepstow High Street","long":-2.675058,"lat":51.64144,"postcode":"NP16 5LQ","street":"17 High St","town":"Chepstow","phoneNumber":"01291622042","stockLevels":{"26":{"itemName":"Elvanse Adult","itemStrength":"30mg","stockLevelValue":"R"}}},{"storeId":452,"displayName":"Marlborough High Street","long":-1.732952,"lat":51.41982,"postcode":"SN8 1LT","street":"102-103 High St","town":"Marlborough","phoneNumber":"01672512351","stockLevels":{"26":{"itemName":"Elvanse Adult","itemStrength":"30mg","stockLevelValue":"R"}}},{"storeId":453,"displayName":"Chipping Norton High Street","long":-1.544635,"lat":51.94193,"postcode":"OX7 5AD","street":"17-18 High St","town":"Chipping Norton","phoneNumber":"01608642523","stockLevels":{"26":{"itemName":"Elvanse Adult","itemStrength":"30mg","stockLevelValue":"R"}}},{"storeId":454,"displayName":"Bristol St Augustines Parade","long":-2.598207,"lat":51.45353,"postcode":"BS1 4UR","street":"19-20 St. Augustines Pde","town":"Bristol","phoneNumber":"01179276311","stockLevels":{"26":{"itemName":"Elvanse Adult","itemStrength":"30mg","stockLevelValue":"R"}}},{"storeId":455,"displayName":"Llandrindod Wells Station Crescent","long":-3.379052,"lat":52.24152,"postcode":"LD1 5BB","street":"Victoria House","town":"Llandrindod Wells","phoneNumber":"01597822311","stockLevels":{"26":{"itemName":"Elvanse Adult","itemStrength":"30mg","stockLevelValue":"R"}}},{"storeId":456,"displayName":"Wallingford Market Place","long":-1.124265,"lat":51.59985,"postcode":"OX10 0EG","street":"7-8 Market Pl","town":"Wallingford","phoneNumber":"01491839061","stockLevels":{"26":{"itemName":"Elvanse Adult","itemStrength":"30mg","stockLevelValue":"R"}}},{"storeId":458,"displayName":"Aberaeron Bridge Street","long":-4.258871,"lat":52.24224,"postcode":"SA46 0AP","street":"5A Bridge Street","town":"Aberaeron","phoneNumber":"01545571231","stockLevels":{"26":{"itemName":"Elvanse Adult","itemStrength":"30mg","stockLevelValue":"R"}}},{"storeId":459,"displayName":"Newbury Northbrook Street","long":-1.324128,"lat":51.40324,"postcode":"RG14 1DJ","street":"4-5 Northbrook St","town":"Newbury","phoneNumber":"0163540396","stockLevels":{"26":{"itemName":"Elvanse Adult","itemStrength":"30mg","stockLevelValue":"G"}}},{"storeId":461,"displayName":"Winsford Dingle Walk","long":-2.527526,"lat":53.19174,"postcode":"CW7 1BA","street":"5-7 Dingle Walk","town":"Winsford","phoneNumber":"01606593661","stockLevels":{"26":{"itemName":"Elvanse Adult","itemStrength":"30mg","stockLevelValue":"R"}}},{"storeId":463,"displayName":"Fishguard Market Square","long":-4.976593,"lat":51.99381,"postcode":"SA65 9HA","street":"Market Sq","town":"Fishguard","phoneNumber":"01348872856","stockLevels":{"26":{"itemName":"Elvanse Adult","itemStrength":"30mg","stockLevelValue":"R"}}},{"storeId":464,"displayName":"Cardigan Prendre","long":-4.660768,"lat":52.0844,"postcode":"SA43 1JL","street":"3 Pendre","town":"Cardigan","phoneNumber":"01239621578","stockLevels":{"26":{"itemName":"Elvanse Adult","itemStrength":"30mg","stockLevelValue":"R"}}},{"storeId":465,"displayName":"Flint Church Street","long":-3.135172,"lat":53.24919,"postcode":"CH6 5AE","street":"58 Church St","town":"Flint","phoneNumber":"01352732312","stockLevels":{"26":{"itemName":"Elvanse Adult","itemStrength":"30mg","stockLevelValue":"R"}}},{"storeId":467,"displayName":"Portishead High Street","long":-2.769013,"lat":51.4838,"postcode":"BS20 6EL","street":"50 High Street","town":"Bristol","phoneNumber":"01275818475","stockLevels":{"26":{"itemName":"Elvanse Adult","itemStrength":"30mg","stockLevelValue":"R"}}},{"storeId":468,"displayName":"Tonypandy Dunraven Street","long":-3.454405,"lat":51.62173,"postcode":"CF40 1AS","street":"118 Dunraven St","town":"Tonypandy","phoneNumber":"01443432478","stockLevels":{"26":{"itemName":"Elvanse Adult","itemStrength":"30mg","stockLevelValue":"R"}}},{"storeId":469,"displayName":"Abertillery Church Street","long":-3.134258,"lat":51.73088,"postcode":"NP13 1DA","street":"9-15 Church Street","town":"Abertillery","phoneNumber":"01495320189","stockLevels":{"26":{"itemName":"Elvanse Adult","itemStrength":"30mg","stockLevelValue":"R"}}},{"storeId":471,"displayName":"South Molton Broad Street","long":-3.834794,"lat":51.01797,"postcode":"EX36 3AQ","street":"18 Broad St","town":"South Molton","phoneNumber":"01769572576","stockLevels":{"26":{"itemName":"Elvanse Adult","itemStrength":"30mg","stockLevelValue":"R"}}},{"storeId":472,"displayName":"Abingdon Bury Street","long":-1.282682,"lat":51.67118,"postcode":"OX14 3QT","street":"27 Bury Street","town":"Abingdon","phoneNumber":"01235520056","stockLevels":{"26":{"itemName":"Elvanse Adult","itemStrength":"30mg","stockLevelValue":"R"}}},{"storeId":473,"displayName":"Bristol Kingswood","long":-2.508739,"lat":51.46307,"postcode":"BS15 8LP","street":"10-11 Kings Chase Shopping Centre","town":"Bristol","phoneNumber":"01179673834","stockLevels":{"26":{"itemName":"Elvanse Adult","itemStrength":"30mg","stockLevelValue":"R"}}},{"storeId":474,"displayName":"Ammanford Quay Street","long":-3.988127,"lat":51.79221,"postcode":"SA18 3DB","street":"23-25 Quay Street","town":"Ammanford","phoneNumber":"01269592067","stockLevels":{"26":{"itemName":"Elvanse Adult","itemStrength":"30mg","stockLevelValue":"R"}}},{"storeId":476,"displayName":"Shotton Chester Road","long":-3.039608,"lat":53.21255,"postcode":"CH5 1BX","street":"7-9 Chester Road West","town":"Deeside","phoneNumber":"01244830452","stockLevels":{"26":{"itemName":"Elvanse Adult","itemStrength":"30mg","stockLevelValue":"R"}}},{"storeId":477,"displayName":"Axminster Trinity Square","long":-2.998997,"lat":50.7823,"postcode":"EX13 5AP","street":"Trinity Square","town":"Axminster","phoneNumber":"0129732288","stockLevels":{"26":{"itemName":"Elvanse Adult","itemStrength":"30mg","stockLevelValue":"R"}}},{"storeId":478,"displayName":"Newcastle Emlyn","long":-4.467801,"lat":52.03851,"postcode":"SA38 9AP","street":"Sycamore St","town":"Newcastle Emlyn","phoneNumber":"01239710240","stockLevels":{"26":{"itemName":"Elvanse Adult","itemStrength":"30mg","stockLevelValue":"R"}}},{"storeId":479,"displayName":"Wokingham Market Place","long":-0.8333957,"lat":51.41067,"postcode":"RG40 1AT","street":"40 Market Pl","town":"Wokingham","phoneNumber":"01189784294","stockLevels":{"26":{"itemName":"Elvanse Adult","itemStrength":"30mg","stockLevelValue":"R"}}},{"storeId":481,"displayName":"Corsham Martingate Centre","long":-2.18613,"lat":51.4319,"postcode":"SN13 0HL","street":"22 Martingate","town":"Corsham","phoneNumber":"01249712379","stockLevels":{"26":{"itemName":"Elvanse Adult","itemStrength":"30mg","stockLevelValue":"R"}}},{"storeId":482,"displayName":"Ruthin Stryd Y Castell","long":-3.310795,"lat":53.11364,"postcode":"LL15 1DP","street":"Strud Y Castell","town":"Ruthin","phoneNumber":"01824703151","stockLevels":{"26":{"itemName":"Elvanse Adult","itemStrength":"30mg","stockLevelValue":"R"}}},{"storeId":483,"displayName":"Reading Woodley","long":-0.9060658,"lat":51.45283,"postcode":"RG5 3JP","street":"89-91 Crockhamwell Road","town":"Reading","phoneNumber":"01189695253","stockLevels":{"26":{"itemName":"Elvanse Adult","itemStrength":"30mg","stockLevelValue":"R"}}},{"storeId":484,"displayName":"Wolverhampton Blackhalve Lane","long":-2.096367,"lat":52.61357,"postcode":"WV11 1BH","street":"2 Blackhalve La","town":"Wolverhampton","phoneNumber":"01902731350","stockLevels":{"26":{"itemName":"Elvanse Adult","itemStrength":"30mg","stockLevelValue":"R"}}},{"storeId":487,"displayName":"Llangefni High Street","long":-4.311903,"lat":53.25593,"postcode":"LL77 7LT","street":"4 High St","town":"Llangefni","phoneNumber":"01248750278","stockLevels":{"26":{"itemName":"Elvanse Adult","itemStrength":"30mg","stockLevelValue":"R"}}},{"storeId":489,"displayName":"Bristol Henleaze","long":-2.61226,"lat":51.48518,"postcode":"BS9 4JT","street":"55 Henleaze Rd","town":"Bristol","phoneNumber":"01179624460","stockLevels":{"26":{"itemName":"Elvanse Adult","itemStrength":"30mg","stockLevelValue":"R"}}},{"storeId":490,"displayName":"Kenilworth Talisman Square","long":-1.577644,"lat":52.34229,"postcode":"CV8 1JB","street":"2 Talisman Sq","town":"Kenilworth","phoneNumber":"01926854606","stockLevels":{"26":{"itemName":"Elvanse Adult","itemStrength":"30mg","stockLevelValue":"R"}}},{"storeId":491,"displayName":"Bristol Thornbury","long":-2.525761,"lat":51.60749,"postcode":"BS35 2AR","street":"43 High Street","town":"Bristol","phoneNumber":"01454417713","stockLevels":{"26":{"itemName":"Elvanse Adult","itemStrength":"30mg","stockLevelValue":"R"}}},{"storeId":492,"displayName":"Dawlish The Strand","long":-3.468241,"lat":50.58138,"postcode":"EX7 9PS","street":"21 The Strand","town":"Dawlish","phoneNumber":"01626889139","stockLevels":{"26":{"itemName":"Elvanse Adult","itemStrength":"30mg","stockLevelValue":"R"}}},{"storeId":494,"displayName":"Cardiff Whitchurch","long":-3.219422,"lat":51.51294,"postcode":"CF14 1DA","street":"15 Merthyr Road","town":"Cardiff","phoneNumber":"02920620185","stockLevels":{"26":{"itemName":"Elvanse Adult","itemStrength":"30mg","stockLevelValue":"R"}}},{"storeId":495,"displayName":"Brackley Market Place","long":-1.149807,"lat":52.02702,"postcode":"NN13 7DP","street":"40 Market Pl","town":"Brackley","phoneNumber":"01280702213","stockLevels":{"26":{"itemName":"Elvanse Adult","itemStrength":"30mg","stockLevelValue":"R"}}},{"storeId":496,"displayName":"Birmingham Castle Bromwich","long":-1.773416,"lat":52.50188,"postcode":"B36 9AD","street":"352 Bradford Rd","town":"BIRMINGHAM","phoneNumber":"01217473062","stockLevels":{"26":{"itemName":"Elvanse Adult","itemStrength":"30mg","stockLevelValue":"R"}}},{"storeId":500,"displayName":"Leeds Trinity","long":-1.545792,"lat":53.79725,"postcode":"LS1 5EY","street":"1 Bond Street Leeds Trinity","town":"Leeds","phoneNumber":"01132433551","stockLevels":{"26":{"itemName":"Elvanse Adult","itemStrength":"30mg","stockLevelValue":"R"}}},{"storeId":502,"displayName":"Leeds City Station","long":-1.547602,"lat":53.79418,"postcode":"LS1 4DT","street":"City Station","town":"Leeds","phoneNumber":"01132421713","stockLevels":{"26":{"itemName":"Elvanse Adult","itemStrength":"30mg","stockLevelValue":"R"}}},{"storeId":503,"displayName":"Burnley St James Street","long":-2.241138,"lat":53.78943,"postcode":"BB11 1QL","street":"51 St. James's St","town":"Burnley","phoneNumber":"01282421934","stockLevels":{"26":{"itemName":"Elvanse Adult","itemStrength":"30mg","stockLevelValue":"R"}}},{"storeId":505,"displayName":"Wakefield Kirkgate","long":-1.496005,"lat":53.6824,"postcode":"WF1 1UP","street":"26-28 Kirkgate","town":"Wakefield","phoneNumber":"01924376181","stockLevels":{"26":{"itemName":"Elvanse Adult","itemStrength":"30mg","stockLevelValue":"R"}}},{"storeId":506,"displayName":"Dewsbury Prince Of Wales Precinct","long":-1.628533,"lat":53.69042,"postcode":"WF13 1NH","street":"27 The Princess of Wales Precinct","town":"Dewsbury","phoneNumber":"01924455815","stockLevels":{"26":{"itemName":"Elvanse Adult","itemStrength":"30mg","stockLevelValue":"R"}}},{"storeId":507,"displayName":"Pontefract Beastfair","long":-1.312722,"lat":53.6913,"postcode":"WF8 1AL","street":"3-5 Beastfair","town":"Pontefract","phoneNumber":"01977703719","stockLevels":{"26":{"itemName":"Elvanse Adult","itemStrength":"30mg","stockLevelValue":"R"}}},{"storeId":509,"displayName":"Colne Market Street","long":-2.165952,"lat":53.85698,"postcode":"BB8 0HS","street":"64 Market St","town":"Colne","phoneNumber":"01282863502","stockLevels":{"26":{"itemName":"Elvanse Adult","itemStrength":"30mg","stockLevelValue":"R"}}},{"storeId":511,"displayName":"Chester Le Street St Cuthberts Walk","long":-1.575093,"lat":54.85716,"postcode":"DH3 3YQ","street":"St. Cuthberts Walk","town":"Chester Le Street","phoneNumber":"01913886262","stockLevels":{"26":{"itemName":"Elvanse Adult","itemStrength":"30mg","stockLevelValue":"R"}}},{"storeId":512,"displayName":"Bristol Clifton Queen Road","long":-2.60747,"lat":51.45745,"postcode":"BS8 1QU","street":"66 Queens Road","town":"Bristol","phoneNumber":"01179264083","stockLevels":{"26":{"itemName":"Elvanse Adult","itemStrength":"30mg","stockLevelValue":"R"}}},{"storeId":518,"displayName":"Johnstone High Street","long":-4.51189,"lat":55.83684,"postcode":"PA5 8AN","street":"52C High St","town":"Johnstone","phoneNumber":"01505320396","stockLevels":{"26":{"itemName":"Elvanse Adult","itemStrength":"30mg","stockLevelValue":"R"}}},{"storeId":519,"displayName":"Middlesbrough Cleveland Centre","long":-1.236521,"lat":54.57538,"postcode":"TS1 2JZ","street":"88-90 Cleveland Centre","town":"Middlesbrough","phoneNumber":"01642249616","stockLevels":{"26":{"itemName":"Elvanse Adult","itemStrength":"30mg","stockLevelValue":"R"}}},{"storeId":520,"displayName":"Leeds White Rose Shopping Centre","long":-1.574239,"lat":53.75864,"postcode":"LS11 8LL","street":"Lower Level","town":"Leeds","phoneNumber":"01132776196","stockLevels":{"26":{"itemName":"Elvanse Adult","itemStrength":"30mg","stockLevelValue":"G"}}},{"storeId":522,"displayName":"Kirkintilloch Regent Centre","long":-4.157263,"lat":55.93962,"postcode":"G66 1JH","street":"9 The Regent Centre","town":"Glasgow","phoneNumber":"01417763418","stockLevels":{"26":{"itemName":"Elvanse Adult","itemStrength":"30mg","stockLevelValue":"R"}}},{"storeId":523,"displayName":"Crieff High Street","long":-3.84013,"lat":56.3727,"postcode":"PH7 3HU","street":"9-13 High St","town":"Crieff","phoneNumber":"01764652310","stockLevels":{"26":{"itemName":"Elvanse Adult","itemStrength":"30mg","stockLevelValue":"R"}}},{"storeId":524,"displayName":"Keighley Airdale Centre","long":-1.907964,"lat":53.86689,"postcode":"BD21 3PY","street":"22-28 Queensway","town":"Keighley","phoneNumber":"01535602600","stockLevels":{"26":{"itemName":"Elvanse Adult","itemStrength":"30mg","stockLevelValue":"R"}}},{"storeId":525,"displayName":"Leeds Morley","long":-1.602227,"lat":53.74533,"postcode":"LS27 9BG","street":"3 Windsor Court","town":"Leeds","phoneNumber":"01132532387","stockLevels":{"26":{"itemName":"Elvanse Adult","itemStrength":"30mg","stockLevelValue":"R"}}},{"storeId":526,"displayName":"Skipton High Street","long":-2.01734,"lat":53.96171,"postcode":"BD23 1JP","street":"54-56 High St","town":"Skipton","phoneNumber":"01756792091","stockLevels":{"26":{"itemName":"Elvanse Adult","itemStrength":"30mg","stockLevelValue":"R"}}},{"storeId":527,"displayName":"Thirsk Market Place","long":-1.343245,"lat":54.23208,"postcode":"YO7 1LB","street":"28 Market Pl","town":"Thirsk","phoneNumber":"01845522110","stockLevels":{"26":{"itemName":"Elvanse Adult","itemStrength":"30mg","stockLevelValue":"R"}}},{"storeId":528,"displayName":"Bristol Hartcliffe","long":-2.598161,"lat":51.40487,"postcode":"BS13 0BE","street":"Peterson Ave","town":"Bristol","phoneNumber":"01179641232","stockLevels":{"26":{"itemName":"Elvanse Adult","itemStrength":"30mg","stockLevelValue":"R"}}},{"storeId":530,"displayName":"Huddersfield King Street","long":-1.781348,"lat":53.64541,"postcode":"HD1 2QE","street":"22 KING STREET","town":"HUDDERSFIELD","phoneNumber":"01484421756","stockLevels":{"26":{"itemName":"Elvanse Adult","itemStrength":"30mg","stockLevelValue":"G"}}},{"storeId":531,"displayName":"Bolton The Gates Shopping Centre","long":-2.427598,"lat":53.57926,"postcode":"BL1 1DF","street":"12-15 The Gates Shopping Centre","town":"Bolton","phoneNumber":"01204528266","stockLevels":{"26":{"itemName":"Elvanse Adult","itemStrength":"30mg","stockLevelValue":"R"}}},{"storeId":533,"displayName":"Leeds Rothwell Commercial Street","long":-1.477368,"lat":53.74841,"postcode":"LS26 0AP","street":"69-91 Commercial Street","town":"Leeds","phoneNumber":"01132822269","stockLevels":{"26":{"itemName":"Elvanse Adult","itemStrength":"30mg","stockLevelValue":"R"}}},{"storeId":534,"displayName":"Pudsey Church Lane","long":-1.663898,"lat":53.79628,"postcode":"LS28 7LD","street":"11 Church La","town":"Pudsey","phoneNumber":"01132574862","stockLevels":{"26":{"itemName":"Elvanse Adult","itemStrength":"30mg","stockLevelValue":"R"}}},{"storeId":537,"displayName":"Clydebank Clyde Shopping Centre","long":-4.403686,"lat":55.90465,"postcode":"G81 2TL","street":"98 Sylvania Way","town":"Clydebank","phoneNumber":"01419522217","stockLevels":{"26":{"itemName":"Elvanse Adult","itemStrength":"30mg","stockLevelValue":"R"}}},{"storeId":540,"displayName":"South Shields King Street","long":-1.43461,"lat":54.99802,"postcode":"NE33 1DH","street":"49-61 King St","town":"South Shields","phoneNumber":"01914560616","stockLevels":{"26":{"itemName":"Elvanse Adult","itemStrength":"30mg","stockLevelValue":"R"}}},{"storeId":541,"displayName":"Brighouse Commercial Street","long":-1.780707,"lat":53.70209,"postcode":"HD6 1AF","street":"59-61 Commercial St","town":"Brighouse","phoneNumber":"01484714070","stockLevels":{"26":{"itemName":"Elvanse Adult","itemStrength":"30mg","stockLevelValue":"R"}}},{"storeId":542,"displayName":"Forres High Street","long":-3.61315,"lat":57.60981,"postcode":"IV36 1NX","street":"90 High St","town":"Forres","phoneNumber":"01309673370","stockLevels":{"26":{"itemName":"Elvanse Adult","itemStrength":"30mg","stockLevelValue":"R"}}},{"storeId":543,"displayName":"Edinburgh Corstorphine","long":-3.280339,"lat":55.94238,"postcode":"EH12 7SB","street":"129 St. Johns Rd","town":"Edinburgh","phoneNumber":"01313344520","stockLevels":{"26":{"itemName":"Elvanse Adult","itemStrength":"30mg","stockLevelValue":"R"}}},{"storeId":545,"displayName":"Dundee Broughty Ferry","long":-2.874669,"lat":56.46731,"postcode":"DD5 2AG","street":"221 Brook Street","town":"Dundee","phoneNumber":"01382477482","stockLevels":{"26":{"itemName":"Elvanse Adult","itemStrength":"30mg","stockLevelValue":"R"}}},{"storeId":546,"displayName":"Bathgate George Street","long":-3.641483,"lat":55.90231,"postcode":"EH48 1PW","street":"26-30 George St","town":"Bathgate","phoneNumber":"01506652682","stockLevels":{"26":{"itemName":"Elvanse Adult","itemStrength":"30mg","stockLevelValue":"R"}}},{"storeId":547,"displayName":"Washington Arndale House","long":-1.522249,"lat":54.91311,"postcode":"NE37 2SW","street":"12 Arndale House","town":"Washington","phoneNumber":"01914160825","stockLevels":{"26":{"itemName":"Elvanse Adult","itemStrength":"30mg","stockLevelValue":"R"}}},{"storeId":548,"displayName":"Darlington Northgate","long":-1.554452,"lat":54.5271,"postcode":"DL1 1TT","street":"47-53 Northgate","town":"Darlington","phoneNumber":"01325465644","stockLevels":{"26":{"itemName":"Elvanse Adult","itemStrength":"30mg","stockLevelValue":"R"}}},{"storeId":549,"displayName":"Barnard Castle Market Place","long":-1.923456,"lat":54.54318,"postcode":"DL12 8NE","street":"37-39 Market Pl","town":"Barnard Castle","phoneNumber":"01833638151","stockLevels":{"26":{"itemName":"Elvanse Adult","itemStrength":"30mg","stockLevelValue":"R"}}},{"storeId":550,"displayName":"St Andrews Market Street","long":-2.797063,"lat":56.3406,"postcode":"KY16 9PE","street":"113-117 Market St","town":"St. Andrews","phoneNumber":"01334474306","stockLevels":{"26":{"itemName":"Elvanse Adult","itemStrength":"30mg","stockLevelValue":"R"}}},{"storeId":551,"displayName":"Bridlington 9-13 The Promenade","long":-0.1893362,"lat":54.08266,"postcode":"YO15 2PY","street":"9-13 Promenade","town":"Bridlington","phoneNumber":"01262673202","stockLevels":{"26":{"itemName":"Elvanse Adult","itemStrength":"30mg","stockLevelValue":"R"}}},{"storeId":553,"displayName":"Whitby Baxtergate","long":-0.6152507,"lat":54.48597,"postcode":"YO21 1BL","street":"64-66 Baxtergate","town":"Whitby","phoneNumber":"01947602219","stockLevels":{"26":{"itemName":"Elvanse Adult","itemStrength":"30mg","stockLevelValue":"R"}}},{"storeId":554,"displayName":"Knaresborough Market Place","long":-1.467039,"lat":54.00826,"postcode":"HG5 8AG","street":"22-28 Market Pl","town":"Knaresborough","phoneNumber":"01423863171","stockLevels":{"26":{"itemName":"Elvanse Adult","itemStrength":"30mg","stockLevelValue":"R"}}},{"storeId":556,"displayName":"Ilkley Brook Street","long":-1.823744,"lat":53.92591,"postcode":"LS29 8AG","street":"37-39 Brook St","town":"Ilkley","phoneNumber":"01943816959","stockLevels":{"26":{"itemName":"Elvanse Adult","itemStrength":"30mg","stockLevelValue":"R"}}},{"storeId":557,"displayName":"Crook North Terrace","long":-1.744249,"lat":54.7157,"postcode":"DL15 9AZ","street":"8 North Ter","town":"Crook","phoneNumber":"01388762726","stockLevels":{"26":{"itemName":"Elvanse Adult","itemStrength":"30mg","stockLevelValue":"R"}}},