[{"storeId":5,"displayName":"Nottingham Beeston","long":-1.214508232,"lat":52.927666761,"postcode":"NG9 2JQ","street":"31 High Road","town":"Nottingham","phoneNumber":"01159254464","stockLevels":{"26":{"itemName":"Elvanse Adult","itemStrength":"30mg","stockLevelValue":"R"}}},{"storeId":6,"displayName":"Nottingham Victoria Centre","long":-1.146674978,"lat":52.955606063,"postcode":"NG1 3QS","street":"11-19 Lower Parliament Street","town":"Nottingham","phoneNumber":"01159410199","stockLevels":{"26":{"itemName":"Elvanse Adult","itemStrength":"30mg","stockLevelValue":"R"}}},{"storeId":9,"displayName":"Nottingham Mapperley","long":-1.120240649,"lat":52.98482705,"postcode":"NG3 5QS","street":"944 Woodborough Road","town":"Nottingham","phoneNumber":"01159623564","stockLevels":{"26":{"itemName":"Elvanse Adult","itemStrength":"30mg","stockLevelValue":"R"}}},{"storeId":12,"displayName":"Mansfield Four Seasons Centre","long":-1.199014545,"lat":53.14464719,"postcode":"NG18 1SU","street":"39 Four Seasons Centre","town":"Mansfield","phoneNumber":"01623623089","stockLevels":{"26":{"itemName":"Elvanse Adult","itemStrength":"30mg","stockLevelValue":"R"}}},{"storeId":14,"displayName":"Newark Stodman Street","long":-0.81056105,"lat":53.076263571,"postcode":"NG24 1AT","street":"14-15 Stodman Street","town":"Newark","phoneNumber":"01636703857","stockLevels":{"26":{"itemName":"Elvanse Adult","itemStrength":"30mg","stockLevelValue":"R"}}},{"storeId":16,"displayName":"Nottingham Hucknall 52-54 High Street","long":-1.203757347,"lat":53.038452843,"postcode":"NG15 7AX","street":"52-54 High Street","town":"Nottingham","phoneNumber":"01159633505","stockLevels":{"26":{"itemName":"Elvanse Adult","itemStrength":"30mg","stockLevelValue":"R"}}},{"storeId":17,"displayName":"Nottingham Clifton","long":-1.177839503,"lat":52.903290869,"postcode":"NG11 8AA","street":"222-224 Southchurch Drive","town":"Nottingham","phoneNumber":"01159215630","stockLevels":{"26":{"itemName":"Elvanse Adult","itemStrength":"30mg","stockLevelValue":"R"}}},{"storeId":19,"displayName":"Belper King Street","long":-1.483503613,"lat":53.022961031,"postcode":"DE56 1PS","street":"12 King Street","town":"Belper","phoneNumber":"01773822052","stockLevels":{"26":{"itemName":"Elvanse Adult","itemStrength":"30mg","stockLevelValue":"R"}}},{"storeId":20,"displayName":"Loughborough Market Place","long":-1.207086914,"lat":52.77185428,"postcode":"LE11 3EQ","street":"11-13 Market Place","town":"Loughborough","phoneNumber":"01509214761","stockLevels":{"26":{"itemName":"Elvanse Adult","itemStrength":"30mg","stockLevelValue":"R"}}},{"storeId":21,"displayName":"Bingham Eaton Place","long":-0.953332651,"lat":52.952200353,"postcode":"NG13 8BD","street":"14-16 Eaton Place","town":"Nottingham","phoneNumber":"01949837857","stockLevels":{"26":{"itemName":"Elvanse Adult","itemStrength":"30mg","stockLevelValue":"R"}}},{"storeId":23,"displayName":"Derby  Intu Shopping Centre","long":-1.473409265,"lat":52.920097066,"postcode":"DE1 2AH","street":"1 Devonshire Walk","town":"Derby","phoneNumber":"01332345886","stockLevels":{"26":{"itemName":"Elvanse Adult","itemStrength":"30mg","stockLevelValue":"R"}}},{"storeId":26,"displayName":"Ilkeston Bath Street","long":-1.30860782,"lat":52.97374672,"postcode":"DE7 8FD","street":"48A Bath Street","town":"Ilkeston","phoneNumber":"01159324730","stockLevels":{"26":{"itemName":"Elvanse Adult","itemStrength":"30mg","stockLevelValue":"R"}}},{"storeId":28,"displayName":"Worksop Bridge Street","long":-1.12490884,"lat":53.304599616,"postcode":"S80 1JQ","street":"24-26 Bridge Street","town":"Worksop","phoneNumber":"01909472144","stockLevels":{"26":{"itemName":"Elvanse Adult","itemStrength":"30mg","stockLevelValue":"R"}}},{"storeId":29,"displayName":"Boston Market Place","long":-0.022921062,"lat":52.977631143,"postcode":"PE21 6EH","street":"26 Market Place","town":"Boston","phoneNumber":"01205362138","stockLevels":{"26":{"itemName":"Elvanse Adult","itemStrength":"30mg","stockLevelValue":"R"}}},{"storeId":32,"displayName":"Retford Carolgate","long":-0.942369884,"lat":53.320838828,"postcode":"DN22 6DY","street":"48 Carolgate","town":"Retford","phoneNumber":"01777703812","stockLevels":{"26":{"itemName":"Elvanse Adult","itemStrength":"30mg","stockLevelValue":"R"}}},{"storeId":33,"displayName":"Melton Mowbray Cheapside","long":-0.887393286,"lat":52.764594949,"postcode":"LE13 0TP","street":"1-2 Cheapside","town":"Melton Mowbray","phoneNumber":"01664563088","stockLevels":{"26":{"itemName":"Elvanse Adult","itemStrength":"30mg","stockLevelValue":"R"}}},{"storeId":34,"displayName":"Thorne Finkle Street","long":-0.962367314,"lat":53.61120249,"postcode":"DN8 5DE","street":"5 Finkle Street","town":"Doncaster","phoneNumber":"01405812282","stockLevels":{"26":{"itemName":"Elvanse Adult","itemStrength":"30mg","stockLevelValue":"R"}}},{"storeId":35,"displayName":"Birmingham The Bull Ring Shopping Centre","long":-1.895788156,"lat":52.477489172,"postcode":"B5 4BE","street":"MSU10 Level 2","town":"Birmingham","phoneNumber":"01216326418","stockLevels":{"26":{"itemName":"Elvanse Adult","itemStrength":"30mg","stockLevelValue":"R"}}},{"storeId":36,"displayName":"Gainsborough Market place","long":-0.776436797,"lat":53.399436498,"postcode":"DN21 2BY","street":"30 Market Place","town":"Gainsborough","phoneNumber":"01427612083","stockLevels":{"26":{"itemName":"Elvanse Adult","itemStrength":"30mg","stockLevelValue":"R"}}},{"storeId":37,"displayName":"Grantham High Street","long":-0.642148268,"lat":52.911367226,"postcode":"NG31 6NE","street":"42-43 High Street","town":"Grantham","phoneNumber":"01476563029","stockLevels":{"26":{"itemName":"Elvanse Adult","itemStrength":"30mg","stockLevelValue":"R"}}},{"storeId":38,"displayName":"Leicester Wigston Bell Street","long":-1.104727456,"lat":52.585537921,"postcode":"LE18 1AD","street":"27 Bell Street","town":"Wigston","phoneNumber":"01162886359","stockLevels":{"26":{"itemName":"Elvanse Adult","itemStrength":"30mg","stockLevelValue":"R"}}},{"storeId":40,"displayName":"Market Rasen Queen Street","long":-0.336463799,"lat":53.387366458,"postcode":"LN8 3EH","street":"4 Queen Street","town":"Market Rasen","phoneNumber":"01673843336","stockLevels":{"26":{"itemName":"Elvanse Adult","itemStrength":"30mg","stockLevelValue":"R"}}},{"storeId":41,"displayName":"Sheffield West Street","long":-1.479357761,"lat":53.380299109,"postcode":"S1 4EU","street":"252-254 West Street","town":"Sheffield","phoneNumber":"01142721554","stockLevels":{"26":{"itemName":"Elvanse Adult","itemStrength":"30mg","stockLevelValue":"R"}}},{"storeId":42,"displayName":"Oundle Market Place","long":-0.467875007,"lat":52.480590751,"postcode":"PE8 4BQ","street":"4 Market Place","town":"Peterborough","phoneNumber":"01832273512","stockLevels":{"26":{"itemName":"Elvanse Adult","itemStrength":"30mg","stockLevelValue":"R"}}},{"storeId":45,"displayName":"Barnsley Cheapside","long":-1.479902706,"lat":53.551389794,"postcode":"S70 1RT","street":"34-40 Cheapside","town":"Barnsley","phoneNumber":"01226282616","stockLevels":{"26":{"itemName":"Elvanse Adult","itemStrength":"30mg","stockLevelValue":"R"}}},{"storeId":46,"displayName":"Whitley Bay Park View Shopping Centre","long":-1.446188947,"lat":55.042615366,"postcode":"NE26 2TJ","street":"Unit 15 Park View Shopping Centre","town":"Whitley Bay","phoneNumber":"01912522294","stockLevels":{"26":{"itemName":"Elvanse Adult","itemStrength":"30mg","stockLevelValue":"R"}}},{"storeId":51,"displayName":"Swaffham Market Place","long":0.6871386816,"lat":52.648720427,"postcode":"PE37 7LA","street":"37 Market Place","town":"Swaffham","phoneNumber":"01760721208","stockLevels":{"26":{"itemName":"Elvanse Adult","itemStrength":"30mg","stockLevelValue":"R"}}},{"storeId":54,"displayName":"Fakenham Market Place","long":0.8474621618,"lat":52.829671497,"postcode":"NR21 9BG","street":"7-9 Market Place","town":"Fakenham","phoneNumber":"01328862019","stockLevels":{"26":{"itemName":"Elvanse Adult","itemStrength":"30mg","stockLevelValue":"R"}}},{"storeId":55,"displayName":"Chesterfield Low Pavement","long":-1.429299502,"lat":53.234918932,"postcode":"S40 1PB","street":"35-37 Low Pavement","town":"Chesterfield","phoneNumber":"01246203591","stockLevels":{"26":{"itemName":"Elvanse Adult","itemStrength":"30mg","stockLevelValue":"R"}}},{"storeId":56,"displayName":"Sheffield High Street","long":-1.468162672,"lat":53.382353146,"postcode":"S1 1QF","street":"4-6 High Street","town":"Sheffield","phoneNumber":"01142768333","stockLevels":{"26":{"itemName":"Elvanse Adult","itemStrength":"30mg","stockLevelValue":"R"}}},{"storeId":57,"displayName":"Sheffield Hillsborough Centre","long":-1.501426275,"lat":53.403467156,"postcode":"S6 4HL","street":"11-12 Hillsborough Centre","town":"Sheffield","phoneNumber":"01142343685","stockLevels":{"26":{"itemName":"Elvanse Adult","itemStrength":"30mg","stockLevelValue":"G"}}},{"storeId":59,"displayName":"Doncaster Frenchgate Centre","long":-1.13671565,"lat":53.524013019,"postcode":"DN1 1QB","street":"13-15 French Gate","town":"Doncaster","phoneNumber":"01302342238","stockLevels":{"26":{"itemName":"Elvanse Adult","itemStrength":"30mg","stockLevelValue":"R"}}},{"storeId":61,"displayName":"Sheffield Meadowhall Centre","long":-1.41247624,"lat":53.413049307,"postcode":"S9 1EN","street":"44A High Street","town":"Sheffield","phoneNumber":"01142568011","stockLevels":{"26":{"itemName":"Elvanse Adult","itemStrength":"30mg","stockLevelValue":"G"}}},{"storeId":62,"displayName":"Bourne West Street","long":-0.378866075,"lat":52.767852581,"postcode":"PE10 9NB","street":"3 West Street","town":"Bourne","phoneNumber":"01778422007","stockLevels":{"26":{"itemName":"Elvanse Adult","itemStrength":"30mg","stockLevelValue":"R"}}},{"storeId":64,"displayName":"Burton On Trent Coopers Square","long":-1.632626732,"lat":52.802008214,"postcode":"DE14 1DG","street":"1 Coopers Square","town":"Burton-on-Trent","phoneNumber":"01283561573","stockLevels":{"26":{"itemName":"Elvanse Adult","itemStrength":"30mg","stockLevelValue":"R"}}},{"storeId":65,"displayName":"Rustington 6-7 Churchill Parade","long":-0.50756034,"lat":50.810827799,"postcode":"BN16 3DJ","street":"6-7 Churchill Parade","town":"Littlehampton","phoneNumber":"01903786856","stockLevels":{"26":{"itemName":"Elvanse Adult","itemStrength":"30mg","stockLevelValue":"R"}}},{"storeId":67,"displayName":"Stoke On Trent Longton Exchange","long":-2.135366649,"lat":52.988388595,"postcode":"ST3 2HX","street":"25 Bennett Precinct","town":"Stoke-on-Trent","phoneNumber":"01782313819","stockLevels":{"26":{"itemName":"Elvanse Adult","itemStrength":"30mg","stockLevelValue":"R"}}},{"storeId":71,"displayName":"Swadlincote High Street","long":-1.555831098,"lat":52.773518644,"postcode":"DE11 8JE","street":"15-17 High Street","town":"Swadlincote","phoneNumber":"01283216795","stockLevels":{"26":{"itemName":"Elvanse Adult","itemStrength":"30mg","stockLevelValue":"R"}}},{"storeId":72,"displayName":"Brentwood High Street","long":0.3029448604,"lat":51.620859064,"postcode":"CM14 4RH","street":"51 High Street","town":"Brentwood","phoneNumber":"01277210808","stockLevels":{"26":{"itemName":"Elvanse Adult","itemStrength":"30mg","stockLevelValue":"R"}}},{"storeId":73,"displayName":"Stowmarket Ipswich Street","long":0.9970688205,"lat":52.187161299,"postcode":"IP14 1AH","street":"21 Ipswich Street","town":"Stowmarket","phoneNumber":"01449612349","stockLevels":{"26":{"itemName":"Elvanse Adult","itemStrength":"30mg","stockLevelValue":"G"}}},{"storeId":74,"displayName":"Hinckley Britannia Centre","long":-1.371905741,"lat":52.542368664,"postcode":"LE10 1RU","street":"2 Britannia Centre","town":"Hinckley","phoneNumber":"01455637445","stockLevels":{"26":{"itemName":"Elvanse Adult","itemStrength":"30mg","stockLevelValue":"R"}}},{"storeId":75,"displayName":"Market Harborough St Marys Place","long":-0.918811453,"lat":52.477425022,"postcode":"LE16 7DR","street":"9 St. Marys Place","town":"Market Harborough","phoneNumber":"01858462154","stockLevels":{"26":{"itemName":"Elvanse Adult","itemStrength":"30mg","stockLevelValue":"R"}}},{"storeId":76,"displayName":"Scunthorpe High Street","long":-0.645586243,"lat":53.591893001,"postcode":"DN15 6SB","street":"43-47 High Street","town":"Scunthorpe","phoneNumber":"01724864285","stockLevels":{"26":{"itemName":"Elvanse Adult","itemStrength":"30mg","stockLevelValue":"R"}}},{"storeId":77,"displayName":"Lowestoft London Road North","long":1.7524825587,"lat":52.475707797,"postcode":"NR32 1ET","street":"76A London Road North","town":"Lowestoft","phoneNumber":"01502585717","stockLevels":{"26":{"itemName":"Elvanse Adult","itemStrength":"30mg","stockLevelValue":"R"}}},{"storeId":78,"displayName":"Rushden High Street","long":-0.597813084,"lat":52.289970048,"postcode":"NN10 0QE","street":"29 High Street","town":"Rushden","phoneNumber":"01933312242","stockLevels":{"26":{"itemName":"Elvanse Adult","itemStrength":"30mg","stockLevelValue":"R"}}},{"storeId":79,"displayName":"London Gracechurch Street","long":-0.085056812,"lat":51.511449072,"postcode":"EC3V 0HR","street":"60 Gracechurch Street","town":"London","phoneNumber":"02076234768","stockLevels":{"26":{"itemName":"Elvanse Adult","itemStrength":"30mg","stockLevelValue":"R"}}},{"storeId":80,"displayName":"Kettering Gold Street","long":-0.727431827,"lat":52.401214381,"postcode":"NN16 8JL","street":"35 The Mall","town":"Kettering","phoneNumber":"01536514675","stockLevels":{"26":{"itemName":"Elvanse Adult","itemStrength":"30mg","stockLevelValue":"R"}}},{"storeId":81,"displayName":"Wellingborough Swansgate Centre","long":-0.691429718,"lat":52.300934225,"postcode":"NN8 1EZ","street":"73-76 Corn Lane","town":"Wellingborough","phoneNumber":"01933222019","stockLevels":{"26":{"itemName":"Elvanse Adult","itemStrength":"30mg","stockLevelValue":"R"}}},{"storeId":83,"displayName":"Bedford The Harpur Centre","long":-0.468801759,"lat":52.136246452,"postcode":"MK40 1TN","street":"33-37 Harpur Centre","town":"Bedford","phoneNumber":"01234356231","stockLevels":{"26":{"itemName":"Elvanse Adult","itemStrength":"30mg","stockLevelValue":"R"}}},{"storeId":84,"displayName":"Northampton The Parade","long":-0.896486038,"lat":52.238789155,"postcode":"NN1 2BY","street":"9 The Parade","town":"Northampton","phoneNumber":"01604635566","stockLevels":{"26":{"itemName":"Elvanse Adult","itemStrength":"30mg","stockLevelValue":"R"}}},{"storeId":85,"displayName":"Cambridge Petty Cury","long":0.1207373711,"lat":52.205527219,"postcode":"CB2 3ND","street":"28 Petty Cury","town":"Cambridge","phoneNumber":"01223350213","stockLevels":{"26":{"itemName":"Elvanse Adult","itemStrength":"30mg","stockLevelValue":"R"}}},{"storeId":86,"displayName":"Bury St Edmunds Cornhill","long":0.7113895886,"lat":52.245623437,"postcode":"IP33 1BX","street":"11-13 Cornhill","town":"Bury St. Edmunds","phoneNumber":"01284701516","stockLevels":{"26":{"itemName":"Elvanse Adult","itemStrength":"30mg","stockLevelValue":"R"}}},{"storeId":87,"displayName":"Birstall Sibson Road","long":-1.124673732,"lat":52.680054982,"postcode":"LE4 4ND","street":"123 Sibson Road","town":"Leicester","phoneNumber":"01162674074","stockLevels":{"26":{"itemName":"Elvanse Adult","itemStrength":"30mg","stockLevelValue":"R"}}},{"storeId":89,"displayName":"Kings Lynn High Street","long":0.3950232304,"lat":52.754354453,"postcode":"PE30 1BL","street":"94-96 High Street","town":"King's Lynn","phoneNumber":"01553772427","stockLevels":{"26":{"itemName":"Elvanse Adult","itemStrength":"30mg","stockLevelValue":"R"}}},{"storeId":90,"displayName":"Norwich London Street","long":1.2952861114,"lat":52.629237628,"postcode":"NR2 1LD","street":"34-36 London Street","town":"Norwich","phoneNumber":"01603621295","stockLevels":{"26":{"itemName":"Elvanse Adult","itemStrength":"30mg","stockLevelValue":"R"}}},{"storeId":95,"displayName":"Nottingham West Bridgford","long":-1.127158867,"lat":52.931992729,"postcode":"NG2 5GR","street":"24 Central Avenue","town":"Nottingham","phoneNumber":"01159811015","stockLevels":{"26":{"itemName":"Elvanse Adult","itemStrength":"30mg","stockLevelValue":"R"}}},{"storeId":96,"displayName":"Staines Two Rivers Retail Park","long":-0.511454592,"lat":51.435815197,"postcode":"TW18 4WB","street":"TWO Two Rivers Retail Park","town":"Staines","phoneNumber":"01784455437","stockLevels":{"26":{"itemName":"Elvanse Adult","itemStrength":"30mg","stockLevelValue":"R"}}},{"storeId":97,"displayName":"Great Yarmouth Market Gate Shopping Centre","long":1.7286651136,"lat":52.607543309,"postcode":"NR30 2AX","street":"3 Market Gates Shopping Centre","town":"Great Yarmouth","phoneNumber":"01493859484","stockLevels":{"26":{"itemName":"Elvanse Adult","itemStrength":"30mg","stockLevelValue":"R"}}},{"storeId":100,"displayName":"Cromer Church Street","long":1.300204555,"lat":52.931039256,"postcode":"NR27 9HH","street":"54-56 Church Street","town":"Cromer","phoneNumber":"01263512231","stockLevels":{"26":{"itemName":"Elvanse Adult","itemStrength":"30mg","stockLevelValue":"G"}}},{"storeId":101,"displayName":"Grimsby Friargate","long":-0.086790359,"lat":53.566058194,"postcode":"DN31 1EL","street":"43 Friargate","town":"Grimsby","phoneNumber":"01472357063","stockLevels":{"26":{"itemName":"Elvanse Adult","itemStrength":"30mg","stockLevelValue":"R"}}},{"storeId":107,"displayName":"Northampton Kingsthorpe","long":-0.90014739,"lat":52.264258062,"postcode":"NN2 7SJ","street":"1-2 Alexandra Terrace","town":"Northampton","phoneNumber":"01604714147","stockLevels":{"26":{"itemName":"Elvanse Adult","itemStrength":"30mg","stockLevelValue":"R"}}},{"storeId":108,"displayName":"Brigg Wrawby Street","long":-0.491159183,"lat":53.552326714,"postcode":"DN20 8JH","street":"7 Wrawby Street","town":"Brigg","phoneNumber":"01652652269","stockLevels":{"26":{"itemName":"Elvanse Adult","itemStrength":"30mg","stockLevelValue":"R"}}},{"storeId":109,"displayName":"Skegness Lumley Road","long":0.3373556675,"lat":53.143236346,"postcode":"PE25 3NG","street":"58-64 Lumley Road","town":"Skegness","phoneNumber":"01754763293","stockLevels":{"26":{"itemName":"Elvanse Adult","itemStrength":"30mg","stockLevelValue":"R"}}},{"storeId":110,"displayName":"Stamford High Street","long":-0.478919396,"lat":52.652032076,"postcode":"PE9 2AW","street":"66 High Street","town":"Stamford","phoneNumber":"01780762114","stockLevels":{"26":{"itemName":"Elvanse Adult","itemStrength":"30mg","stockLevelValue":"R"}}},{"storeId":113,"displayName":"Sutton In Ashfield The Idlewells","long":-1.26219009,"lat":53.124946418,"postcode":"NG17 1BN","street":"35 The Idlewells","town":"Sutton In Ashfield","phoneNumber":"01623554094","stockLevels":{"26":{"itemName":"Elvanse Adult","itemStrength":"30mg","stockLevelValue":"R"}}},{"storeId":118,"displayName":"Nottingham Long Eaton High Street","long":-1.268926271,"lat":52.896622563,"postcode":"NG10 1HZ","street":"57-61 High Street","town":"Nottingham","phoneNumber":"01159735241","stockLevels":{"26":{"itemName":"Elvanse Adult","itemStrength":"30mg","stockLevelValue":"R"}}},{"storeId":119,"displayName":"Matlock Causeway Lane","long":-1.554156891,"lat":53.138424195,"postcode":"DE4 3AR","street":"21 Causeway Lane","town":"Matlock","phoneNumber":"01629582189","stockLevels":{"26":{"itemName":"Elvanse Adult","itemStrength":"30mg","stockLevelValue":"R"}}},{"storeId":122,"displayName":"Derby Allenton","long":-1.452894722,"lat":52.890932655,"postcode":"DE24 9AA","street":"832-834 Osmaston Road","town":"Derby","phoneNumber":"01332347294","stockLevels":{"26":{"itemName":"Elvanse Adult","itemStrength":"30mg","stockLevelValue":"R"}}},{"storeId":123,"displayName":"Beccles New Market","long":1.563259193,"lat":52.457352291,"postcode":"NR34 9HQ","street":"5 New Market","town":"Beccles","phoneNumber":"01502713110","stockLevels":{"26":{"itemName":"Elvanse Adult","itemStrength":"30mg","stockLevelValue":"R"}}},{"storeId":124,"displayName":"Cleethorpes St Peters Avenue","long":-0.030964119,"lat":53.559173873,"postcode":"DN35 8HF","street":"63-67 St Peters Avenue","town":"Cleethorpes","phoneNumber":"01472691684","stockLevels":{"26":{"itemName":"Elvanse Adult","itemStrength":"30mg","stockLevelValue":"R"}}},{"storeId":127,"displayName":"Ripley High Street","long":-1.406167578,"lat":53.049442148,"postcode":"DE5 3AA","street":"3 High Street","town":"Ripley","phoneNumber":"01773743170","stockLevels":{"26":{"itemName":"Elvanse Adult","itemStrength":"30mg","stockLevelValue":"R"}}},{"storeId":128,"displayName":"Alfreton High Street","long":-1.388560083,"lat":53.097211474,"postcode":"DE55 7BL","street":"36 High Street","town":"Alfreton","phoneNumber":"01773833121","stockLevels":{"26":{"itemName":"Elvanse Adult","itemStrength":"30mg","stockLevelValue":"R"}}},{"storeId":129,"displayName":"Sleaford Southgate","long":-0.40908479,"lat":52.99778349,"postcode":"NG34 7SY","street":"41-45 Southgate","town":"Sleaford","phoneNumber":"01529302110","stockLevels":{"26":{"itemName":"Elvanse Adult","itemStrength":"30mg","stockLevelValue":"R"}}},{"storeId":130,"displayName":"Louth Mercer Row","long":-0.005398378,"lat":53.365805911,"postcode":"LN11 9JQ","street":"26 Mercer Row","town":"Louth","phoneNumber":"01507602578","stockLevels":{"26":{"itemName":"Elvanse Adult","itemStrength":"30mg","stockLevelValue":"R"}}},{"storeId":132,"displayName":"Uxbridge The Chimes Shopping Centre","long":-0.476517529,"lat":51.54531388,"postcode":"UB8 1GA","street":"128 The Chimes Shopping Centre","town":"Uxbridge","phoneNumber":"01895233526","stockLevels":{"26":{"itemName":"Elvanse Adult","itemStrength":"30mg","stockLevelValue":"R"}}},{"storeId":134,"displayName":"Woodbridge Thoroughfare","long":1.320040817,"lat":52.093665356,"postcode":"IP12 1AL","street":"58 Thoroughfare","town":"Woodbridge","phoneNumber":"01394383548","stockLevels":{"26":{"itemName":"Elvanse Adult","itemStrength":"30mg","stockLevelValue":"R"}}},{"storeId":135,"displayName":"Ashbourne St John Street","long":-1.731762056,"lat":53.017522846,"postcode":"DE6 1GH","street":"7 Horse Jockey Yard","town":"Ashbourne","phoneNumber":"01335342039","stockLevels":{"26":{"itemName":"Elvanse Adult","itemStrength":"30mg","stockLevelValue":"R"}}},{"storeId":137,"displayName":"Hunstanton High Street","long":0.4894286778,"lat":52.939428091,"postcode":"PE36 5AB","street":"19 High Street","town":"Hunstanton","phoneNumber":"01485532228","stockLevels":{"26":{"itemName":"Elvanse Adult","itemStrength":"30mg","stockLevelValue":"R"}}},{"storeId":138,"displayName":"Peterborough Queensgate Centre","long":-0.242763289,"lat":52.573601821,"postcode":"PE1 1NW","street":"Queensgate Centre","town":"Peterborough","phoneNumber":"01733312211","stockLevels":{"26":{"itemName":"Elvanse Adult","itemStrength":"30mg","stockLevelValue":"R"}}},{"storeId":140,"displayName":"Huntingdon High Street","long":-0.182517279,"lat":52.329625372,"postcode":"PE29 3AQ","street":"42 High Street","town":"Huntingdon","phoneNumber":"01480457241","stockLevels":{"26":{"itemName":"Elvanse Adult","itemStrength":"30mg","stockLevelValue":"R"}}},{"storeId":141,"displayName":"Ashby De La Zouch Market Street","long":-1.472585025,"lat":52.746487814,"postcode":"LE65 1AL","street":"32 Market Street","town":"Ashby De La Zouch","phoneNumber":"01530412203","stockLevels":{"26":{"itemName":"Elvanse Adult","itemStrength":"30mg","stockLevelValue":"R"}}},{"storeId":142,"displayName":"Uppingham High Street East","long":-0.720311136,"lat":52.588185121,"postcode":"LE15 9PZ","street":"26 High Street East","town":"Uppingham","phoneNumber":"01572823304","stockLevels":{"26":{"itemName":"Elvanse Adult","itemStrength":"30mg","stockLevelValue":"R"}}},{"storeId":144,"displayName":"Sheffield The Moor","long":-1.47352594,"lat":53.376561217,"postcode":"S1 4PA","street":"66 The Moor","town":"Sheffield","phoneNumber":"01142725454","stockLevels":{"26":{"itemName":"Elvanse Adult","itemStrength":"30mg","stockLevelValue":"R"}}},{"storeId":147,"displayName":"Halstead High Street","long":0.6366179073,"lat":51.94419521,"postcode":"CO9 2JD","street":"69-71 High Street","town":"Halstead","phoneNumber":"01787472220","stockLevels":{"26":{"itemName":"Elvanse Adult","itemStrength":"30mg","stockLevelValue":"R"}}},{"storeId":149,"displayName":"London East Ham","long":0.0523024055,"lat":51.536805492,"postcode":"E6 2HT","street":"82-84 High Street North","town":"London","phoneNumber":"02084720531","stockLevels":{"26":{"itemName":"Elvanse Adult","itemStrength":"30mg","stockLevelValue":"R"}}},{"storeId":150,"displayName":"Bakewell Granby Road","long":-1.674334254,"lat":53.212549412,"postcode":"DE45 1ES","street":"Unit 1 Granby Road","town":"Bakewell","phoneNumber":"01629812043","stockLevels":{"26":{"itemName":"Elvanse Adult","itemStrength":"30mg","stockLevelValue":"G"}}},{"storeId":154,"displayName":"Sheffield Broomhill","long":-1.501593193,"lat":53.377580489,"postcode":"S10 3BB","street":"214 Fulwood Road","town":"Sheffield","phoneNumber":"01142660637","stockLevels":{"26":{"itemName":"Elvanse Adult","itemStrength":"30mg","stockLevelValue":"R"}}},{"storeId":155,"displayName":"Oakham High Street","long":-0.72908837,"lat":52.669480088,"postcode":"LE15 6AL","street":"18 High Street","town":"Oakham","phoneNumber":"01572722024","stockLevels":{"26":{"itemName":"Elvanse Adult","itemStrength":"30mg","stockLevelValue":"R"}}},{"storeId":156,"displayName":"St Neots High Street","long":-0.267768975,"lat":52.228513359,"postcode":"PE19 1BW","street":"33 High Street","town":"St. Neots","phoneNumber":"01480214208","stockLevels":{"26":{"itemName":"Elvanse Adult","itemStrength":"30mg","stockLevelValue":"R"}}},{"storeId":158,"displayName":"Manchester The Trafford Centre","long":-2.349020137,"lat":53.466187461,"postcode":"M17 8BD","street":"10 Peel Avenue","town":"Manchester","phoneNumber":"01617467984","stockLevels":{"26":{"itemName":"Elvanse Adult","itemStrength":"30mg","stockLevelValue":"R"}}},{"storeId":160,"displayName":"Rugeley Brook Square","long":-1.935334876,"lat":52.759534627,"postcode":"WS15 2DT","street":"5 Brook Square","town":"Rugeley","phoneNumber":"01889582061","stockLevels":{"26":{"itemName":"Elvanse Adult","itemStrength":"30mg","stockLevelValue":"R"}}},{"storeId":161,"displayName":"Harwich High Street","long":1.281100576,"lat":51.93745635,"postcode":"CO12 3AJ","street":"224-226 High Street","town":"Harwich","phoneNumber":"01255503508","stockLevels":{"26":{"itemName":"Elvanse Adult","itemStrength":"30mg","stockLevelValue":"R"}}},{"storeId":162,"displayName":"Stone High Street","long":-2.146722125,"lat":52.901907451,"postcode":"ST15 8AW","street":"18-20 High Street","town":"Stone","phoneNumber":"01785813277","stockLevels":{"26":{"itemName":"Elvanse Adult","itemStrength":"30mg","stockLevelValue":"R"}}},{"storeId":163,"displayName":"Stoke On Trent Hanley","long":-2.173938095,"lat":53.026551259,"postcode":"ST1 1PZ","street":"3-5 Upper Market Square","town":"Stoke-on-Trent","phoneNumber":"01782213271","stockLevels":{"26":{"itemName":"Elvanse Adult","itemStrength":"30mg","stockLevelValue":"R"}}},{"storeId":164,"displayName":"Leek Derby Street","long":-2.024545425,"lat":53.105896905,"postcode":"ST13 6HT","street":"13 Derby Street","town":"Leek","phoneNumber":"01538382435","stockLevels":{"26":{"itemName":"Elvanse Adult","itemStrength":"30mg","stockLevelValue":"R"}}},{"storeId":165,"displayName":"Biggleswade Market Square","long":-0.264496284,"lat":52.086256248,"postcode":"SG18 8AS","street":"9-10 Market Square","town":"Biggleswade","phoneNumber":"01767313278","stockLevels":{"26":{"itemName":"Elvanse Adult","itemStrength":"30mg","stockLevelValue":"R"}}},{"storeId":166,"displayName":"Haverhill High Street","long":0.4393420313,"lat":52.082377124,"postcode":"CB9 8AD","street":"15 High Street","town":"Haverhill","phoneNumber":"01440702058","stockLevels":{"26":{"itemName":"Elvanse Adult","itemStrength":"30mg","stockLevelValue":"G"}}},{"storeId":167,"displayName":"St Ives Sheep Market","long":-0.071827434,"lat":52.323275823,"postcode":"PE27 5AH","street":"5-6 Sheep Market","town":"St. Ives","phoneNumber":"01480461886","stockLevels":{"26":{"itemName":"Elvanse Adult","itemStrength":"30mg","stockLevelValue":"R"}}},{"storeId":168,"displayName":"Newcastle Under Lyme High Street","long":-2.228455801,"lat":53.011222284,"postcode":"ST5 1QL","street":"60-62 High Street","town":"Newcastle Under Lyme","phoneNumber":"01782616321","stockLevels":{"26":{"itemName":"Elvanse Adult","itemStrength":"30mg","stockLevelValue":"R"}}},{"storeId":169,"displayName":"Uttoxeter High Street","long":-1.865243628,"lat":52.899351432,"postcode":"ST14 7HT","street":"6 High Street","town":"Uttoxeter","phoneNumber":"01889562047","stockLevels":{"26":{"itemName":"Elvanse Adult","itemStrength":"30mg","stockLevelValue":"R"}}},{"storeId":170,"displayName":"Coalville New Broadway","long":-1.373717586,"lat":52.72471065,"postcode":"LE67 3XJ","street":"9-11 New Broadway","town":"Coalville","phoneNumber":"01530832313","stockLevels":{"26":{"itemName":"Elvanse Adult","itemStrength":"30mg","stockLevelValue":"R"}}},{"storeId":171,"displayName":"Ely Market Street","long":0.2656998733,"lat":52.39961314,"postcode":"CB7 4PB","street":"6 Market Street","town":"Ely","phoneNumber":"01353661461","stockLevels":{"26":{"itemName":"Elvanse Adult","itemStrength":"30mg","stockLevelValue":"R"}}},{"storeId":172,"displayName":"Dereham Market Place","long":0.9408799193,"lat":52.681881509,"postcode":"NR19 2AP","street":"35 Market Place","town":"Dereham","phoneNumber":"01362692793","stockLevels":{"26":{"itemName":"Elvanse Adult","itemStrength":"30mg","stockLevelValue":"R"}}},{"storeId":175,"displayName":"Saffron Walden Market Place","long":0.241611314,"lat":52.024095821,"postcode":"CB10 1HR","street":"Market Place","town":"Saffron Walden","phoneNumber":"01799522342","stockLevels":{"26":{"itemName":"Elvanse Adult","itemStrength":"30mg","stockLevelValue":"R"}}},{"storeId":176,"displayName":"Sudbury Market Hill","long":0.7302258744,"lat":52.038683084,"postcode":"CO10 2EA","street":"12-14 Market Hill","town":"Sudbury","phoneNumber":"01787372617","stockLevels":{"26":{"itemName":"Elvanse Adult","itemStrength":"30mg","stockLevelValue":"R"}}},{"storeId":177,"displayName":"March Broad Street","long":0.0885655601,"lat":52.55043555,"postcode":"PE15 8TP","street":"17-19 Broad Street","town":"March","phoneNumber":"01354652180","stockLevels":{"26":{"itemName":"Elvanse Adult","itemStrength":"30mg","stockLevelValue":"R"}}},{"storeId":178,"displayName":"Stony Stratford High Street","long":-0.852429252,"lat":52.056465095,"postcode":"MK11 1AA","street":"43 High Street","town":"Milton Keynes","phoneNumber":"01908561210","stockLevels":{"26":{"itemName":"Elvanse Adult","itemStrength":"30mg","stockLevelValue":"R"}}},{"storeId":179,"displayName":"Downham Market Wales Court","long":0.3769169471,"lat":52.602129688,"postcode":"PE38 9JZ","street":"11-13 Wales Court","town":"Downham Market","phoneNumber":"01366382345","stockLevels":{"26":{"itemName":"Elvanse Adult","itemStrength":"30mg","stockLevelValue":"G"}}},{"storeId":181,"displayName":"Lichfield Tamworth Street","long":-1.825434275,"lat":52.683740682,"postcode":"WS13 6JJ","street":"4-8 Tamworth Street","town":"Lichfield","phoneNumber":"01543263149","stockLevels":{"26":{"itemName":"Elvanse Adult","itemStrength":"30mg","stockLevelValue":"R"}}},{"storeId":182,"displayName":"Wisbech Horse Fair","long":0.1617223188,"lat":52.66578589,"postcode":"PE13 1AR","street":"15 Horse Fair","town":"Wisbech","phoneNumber":"01945583182","stockLevels":{"26":{"itemName":"Elvanse Adult","itemStrength":"30mg","stockLevelValue":"R"}}},{"storeId":183,"displayName":"Stafford Market Square","long":-2.117712061,"lat":52.806966906,"postcode":"ST16 2BD","street":"10-14 Market Square","town":"Stafford","phoneNumber":"01785251208","stockLevels":{"26":{"itemName":"Elvanse Adult","itemStrength":"30mg","stockLevelValue":"R"}}},{"storeId":185,"displayName":"Newmarket High Street","long":0.4057133712,"lat":52.244212258,"postcode":"CB8 8JX","street":"82 High Street","town":"Newmarket","phoneNumber":"01638662152","stockLevels":{"26":{"itemName":"Elvanse Adult","itemStrength":"30mg","stockLevelValue":"R"}}},{"storeId":189,"displayName":"Leicester Beaumont Leys","long":-1.166771661,"lat":52.666019359,"postcode":"LE4 1DG","street":"20-22 Fletcher Mall","town":"Leicester","phoneNumber":"01162352500","stockLevels":{"26":{"itemName":"Elvanse Adult","itemStrength":"30mg","stockLevelValue":"R"}}},{"storeId":190,"displayName":"London Canary Wharf Canada Square","long":-0.019462488,"lat":51.504964162,"postcode":"E14 5AX","street":"Unit 14 Canada Square","town":"London","phoneNumber":"02077191178","stockLevels":{"26":{"itemName":"Elvanse Adult","itemStrength":"30mg","stockLevelValue":"R"}}},{"storeId":191,"displayName":"Leicester Gallowtree Gate","long":-1.131763321,"lat":52.635049443,"postcode":"LE1 1DD","street":"30-36 Gallowtree Gate","town":"Leicester","phoneNumber":"01162621641","stockLevels":{"26":{"itemName":"Elvanse Adult","itemStrength":"30mg","stockLevelValue":"R"}}},{"storeId":196,"displayName":"Witham Newland Street","long":0.6400647021,"lat":51.800092614,"postcode":"CM8 2AR","street":"42 Newland Street","town":"Witham","phoneNumber":"01376513613","stockLevels":{"26":{"itemName":"Elvanse Adult","itemStrength":"30mg","stockLevelValue":"R"}}},{"storeId":198,"displayName":"Felixstowe Hamilton Road","long":1.352177244,"lat":51.964063413,"postcode":"IP11 7AD","street":"86 Hamilton Road","town":"Felixstowe","phoneNumber":"01394282022","stockLevels":{"26":{"itemName":"Elvanse Adult","itemStrength":"30mg","stockLevelValue":"R"}}},{"storeId":199,"displayName":"Colchester Lion Walk","long":0.9007114114,"lat":51.88830032,"postcode":"CO1 1LX","street":"4-6 Lion Walk","town":"Colchester","phoneNumber":"01206577303","stockLevels":{"26":{"itemName":"Elvanse Adult","itemStrength":"30mg","stockLevelValue":"R"}}},{"storeId":200,"displayName":"Coventry Lower Precinct","long":-1.514409319,"lat":52.40793616,"postcode":"CV1 1DS","street":"49 Lower Precinct","town":"Coventry","phoneNumber":"02476226561","stockLevels":{"26":{"itemName":"Elvanse Adult","itemStrength":"30mg","stockLevelValue":"R"}}},{"storeId":203,"displayName":"Kingswinford Market Street","long":-2.168374193,"lat":52.496617067,"postcode":"DY6 9JR","street":"16 Market Street","town":"Kingswinford","phoneNumber":"01384401900","stockLevels":{"26":{"itemName":"Elvanse Adult","itemStrength":"30mg","stockLevelValue":"R"}}},{"storeId":210,"displayName":"Birmingham Perry Barr","long":-1.902958732,"lat":52.517608333,"postcode":"B42 1AA","street":"28 One Stop Retail Park","town":"Birmingham","phoneNumber":"01213444825","stockLevels":{"26":{"itemName":"Elvanse Adult","itemStrength":"30mg","stockLevelValue":"R"}}},{"storeId":215,"displayName":"Birmingham Harborne","long":-1.946825438,"lat":52.459812729,"postcode":"B17 9NR","street":"87-87A High Street","town":"Birmingham","phoneNumber":"01214273118","stockLevels":{"26":{"itemName":"Elvanse Adult","itemStrength":"30mg","stockLevelValue":"R"}}},{"storeId":217,"displayName":"Birmingham Chelmsley Wood Greenwood Way","long":-1.739254033,"lat":52.479342833,"postcode":"B37 5TL","street":"29-31 Greenwood Way","town":"Birmingham","phoneNumber":"01217706011","stockLevels":{"26":{"itemName":"Elvanse Adult","itemStrength":"30mg","stockLevelValue":"R"}}},{"storeId":218,"displayName":"Birmingham Kings Heath","long":-1.892566005,"lat":52.434109559,"postcode":"B14 7DG","street":"145-147 High Street","town":"Birmingham","phoneNumber":"01214441016","stockLevels":{"26":{"itemName":"Elvanse Adult","itemStrength":"30mg","stockLevelValue":"R"}}},{"storeId":220,"displayName":"West Bromwich Sandwell Centre","long":-1.991923802,"lat":52.518699417,"postcode":"B70 7NG","street":"27 Queens Square","town":"West Bromwich","phoneNumber":"01215535502","stockLevels":{"26":{"itemName":"Elvanse Adult","itemStrength":"30mg","stockLevelValue":"R"}}},{"storeId":222,"displayName":"Basingstoke Old Basing Mall","long":-1.08831962,"lat":51.266304704,"postcode":"RG21 7LW","street":"15 Old Basing Mall","town":"Basingstoke","phoneNumber":"01256351611","stockLevels":{"26":{"itemName":"Elvanse Adult","itemStrength":"30mg","stockLevelValue":"R"}}},{"storeId":223,"displayName":"Manchester Wythenshawe Hale Top Civic Centre","long":-2.261900709,"lat":53.379131575,"postcode":"M22 5RN","street":"1A Hale Top","town":"Manchester","phoneNumber":"01614371798","stockLevels":{"26":{"itemName":"Elvanse Adult","itemStrength":"30mg","stockLevelValue":"R"}}},{"storeId":225,"displayName":"Wolverhampton Dudley Street","long":-2.127622049,"lat":52.584499175,"postcode":"WV1 3EX","street":"40-42 Dudley Street","town":"Wolverhampton","phoneNumber":"01902427145","stockLevels":{"26":{"itemName":"Elvanse Adult","itemStrength":"30mg","stockLevelValue":"R"}}},{"storeId":229,"displayName":"Holbeach High Street","long":0.0159480621,"lat":52.803850679,"postcode":"PE12 7DY","street":"27 High Street","town":"Spalding","phoneNumber":"01406422211","stockLevels":{"26":{"itemName":"Elvanse Adult","itemStrength":"30mg","stockLevelValue":"R"}}},{"storeId":232,"displayName":"Walsall Park Place","long":-1.983322149,"lat":52.585178458,"postcode":"WS1 1NG","street":"58 Park Street","town":"Walsall","phoneNumber":"01922621555","stockLevels":{"26":{"itemName":"Elvanse Adult","itemStrength":"30mg","stockLevelValue":"R"}}},{"storeId":233,"displayName":"Sutton Coldfield Gracechurch Shopping Centre","long":-1.824381957,"lat":52.562233681,"postcode":"B72 1PD","street":"44-46 Gracechurch Shopping Centre","town":"Sutton Coldfield","phoneNumber":"01213541729","stockLevels":{"26":{"itemName":"Elvanse Adult","itemStrength":"30mg","stockLevelValue":"G"}}},{"storeId":235,"displayName":"Dudley Market place","long":-2.08175977,"lat":52.510265648,"postcode":"DY1 1PJ","street":"25-26 Market Place","town":"Dudley","phoneNumber":"01384252300","stockLevels":{"26":{"itemName":"Elvanse Adult","itemStrength":"30mg","stockLevelValue":"R"}}},{"storeId":236,"displayName":"Coventry Cannon Park Centre","long":-1.554890186,"lat":52.387822586,"postcode":"CV4 7EH","street":"11 Cannon Park Centre","town":"Coventry","phoneNumber":"02476417158","stockLevels":{"26":{"itemName":"Elvanse Adult","itemStrength":"30mg","stockLevelValue":"R"}}},{"storeId":237,"displayName":"Stourbridge Ryemarket","long":-2.146335889,"lat":52.455939847,"postcode":"DY8 1HJ","street":"5 Ryemarket","town":"Stourbridge","phoneNumber":"01384394157","stockLevels":{"26":{"itemName":"Elvanse Adult","itemStrength":"30mg","stockLevelValue":"R"}}},{"storeId":239,"displayName":"Stratford Upon Avon Bridge Street","long":-1.7050494,"lat":52.192376092,"postcode":"CV37 6AB","street":"11 Bridge Street","town":"Stratford Upon Avon","phoneNumber":"01789292173","stockLevels":{"26":{"itemName":"Elvanse Adult","itemStrength":"30mg","stockLevelValue":"R"}}},{"storeId":240,"displayName":"Maidenhead High Street","long":-0.721239871,"lat":51.523004505,"postcode":"SL6 1PY","street":"54 High Street","town":"Maidenhead","phoneNumber":"01628671834","stockLevels":{"26":{"itemName":"Elvanse Adult","itemStrength":"30mg","stockLevelValue":"R"}}},{"storeId":241,"displayName":"Witney High Street","long":-1.485036134,"lat":51.785273553,"postcode":"OX28 6HA","street":"2-8 High Street","town":"Witney","phoneNumber":"01993702213","stockLevels":{"26":{"itemName":"Elvanse Adult","itemStrength":"30mg","stockLevelValue":"R"}}},{"storeId":242,"displayName":"Thame High Street","long":-0.978851355,"lat":51.747468243,"postcode":"OX9 2BU","street":"4-5 High Street","town":"Thame","phoneNumber":"01844213882","stockLevels":{"26":{"itemName":"Elvanse Adult","itemStrength":"30mg","stockLevelValue":"R"}}},{"storeId":243,"displayName":"Bristol Broadmead","long":-2.589492262,"lat":51.457400266,"postcode":"BS1 3EA","street":"59 Broadmead","town":"Bristol","phoneNumber":"01179293631","stockLevels":{"26":{"itemName":"Elvanse Adult","itemStrength":"30mg","stockLevelValue":"R"}}},{"storeId":244,"displayName":"Honiton 123 High Street","long":-3.190520352,"lat":50.799489675,"postcode":"EX14 1HR","street":"123 High Street","town":"Honiton","phoneNumber":"0140442666","stockLevels":{"26":{"itemName":"Elvanse Adult","itemStrength":"30mg","stockLevelValue":"R"}}},{"storeId":245,"displayName":"Bristol Bishopston","long":-2.592322978,"lat":51.471484861,"postcode":"BS7 8AD","street":"47-49 Gloucester Road","town":"Bristol","phoneNumber":"01179246076","stockLevels":{"26":{"itemName":"Elvanse Adult","itemStrength":"30mg","stockLevelValue":"R"}}},{"storeId":246,"displayName":"Shirehampton High Street","long":-2.675841226,"lat":51.488953361,"postcode":"BS11 0DX","street":"39 High Street","town":"Bristol","phoneNumber":"01179823543","stockLevels":{"26":{"itemName":"Elvanse Adult","itemStrength":"30mg","stockLevelValue":"R"}}},{"storeId":247,"displayName":"High Wycombe Eden Walk","long":-0.752273426,"lat":51.629487138,"postcode":"HP11 2AW","street":"Eden Walk","town":"High Wycombe","phoneNumber":"01494523128","stockLevels":{"26":{"itemName":"Elvanse Adult","itemStrength":"30mg","stockLevelValue":"R"}}},{"storeId":248,"displayName":"Aylesbury Hale Leys Shopping Centre","long":-0.811411665,"lat":51.816567645,"postcode":"HP20 1ST","street":"4 Hale Leys Shopping Centre","town":"Aylesbury","phoneNumber":"01296483661","stockLevels":{"26":{"itemName":"Elvanse Adult","itemStrength":"30mg","stockLevelValue":"R"}}},{"storeId":249,"displayName":"Banbury Castle Quay","long":-1.335008499,"lat":52.062773196,"postcode":"OX16 5UH","street":"12-14 Castle Quay","town":"Banbury","phoneNumber":"01295262015","stockLevels":{"26":{"itemName":"Elvanse Adult","itemStrength":"30mg","stockLevelValue":"G"}}},{"storeId":251,"displayName":"Leamington Spa Parade","long":-1.535372272,"lat":52.291596855,"postcode":"CV32 4BL","street":"31 Parade","town":"Leamington Spa","phoneNumber":"01926424945","stockLevels":{"26":{"itemName":"Elvanse Adult","itemStrength":"30mg","stockLevelValue":"R"}}},{"storeId":252,"displayName":"Evesham Bridge Street","long":-1.945961538,"lat":52.092460915,"postcode":"WR11 4SQ","street":"19-21 Bridge Street","town":"Evesham","phoneNumber":"01386765252","stockLevels":{"26":{"itemName":"Elvanse Adult","itemStrength":"30mg","stockLevelValue":"R"}}},{"storeId":254,"displayName":"Gloucester Eastgate Street","long":-2.243659178,"lat":51.86347812,"postcode":"GL1 1PU","street":"38-46 Eastgate Street","town":"Gloucester","phoneNumber":"01452423501","stockLevels":{"26":{"itemName":"Elvanse Adult","itemStrength":"30mg","stockLevelValue":"R"}}},{"storeId":255,"displayName":"Yate North Walk","long":-2.413574306,"lat":51.540767249,"postcode":"BS37 4AP","street":"15-17 North Walk","town":"Bristol","phoneNumber":"01454312589","stockLevels":{"26":{"itemName":"Elvanse Adult","itemStrength":"30mg","stockLevelValue":"R"}}},{"storeId":256,"displayName":"Redditch Kingfisher Shopping Centre","long":-1.943459348,"lat":52.306152278,"postcode":"B97 4EY","street":"Kingfisher Walk","town":"Redditch","phoneNumber":"0152768166","stockLevels":{"26":{"itemName":"Elvanse Adult","itemStrength":"30mg","stockLevelValue":"R"}}},{"storeId":258,"displayName":"Bromsgrove High Street","long":-2.060389614,"lat":52.334945673,"postcode":"B61 8HD","street":"78 High Street","town":"Bromsgrove","phoneNumber":"01527872056","stockLevels":{"26":{"itemName":"Elvanse Adult","itemStrength":"30mg","stockLevelValue":"R"}}},{"storeId":259,"displayName":"Worcester High Street","long":-2.22159446,"lat":52.192094706,"postcode":"WR1 2EU","street":"72-74 High Street","town":"Worcester","phoneNumber":"01905726868","stockLevels":{"26":{"itemName":"Elvanse Adult","itemStrength":"30mg","stockLevelValue":"R"}}},{"storeId":260,"displayName":"Cheltenham High Street","long":-2.074424683,"lat":51.901307185,"postcode":"GL50 1DB","street":"197-199 High Street And 12-15 North Stre","town":"Cheltenham","phoneNumber":"01242527084","stockLevels":{"26":{"itemName":"Elvanse Adult","itemStrength":"30mg","stockLevelValue":"G"}}},{"storeId":261,"displayName":"Stroud High Street","long":-2.216329115,"lat":51.745551604,"postcode":"GL5 1AS","street":"57 High Street","town":"Stroud","phoneNumber":"01453764292","stockLevels":{"26":{"itemName":"Elvanse Adult","itemStrength":"30mg","stockLevelValue":"R"}}},{"storeId":262,"displayName":"Milton Keynes Crown Walk","long":-0.755955974,"lat":52.043573135,"postcode":"MK9 3AH","street":"18 Crown Walk","town":"Milton Keynes","phoneNumber":"01908607327","stockLevels":{"26":{"itemName":"Elvanse Adult","itemStrength":"30mg","stockLevelValue":"R"}}},{"storeId":263,"displayName":"Barnstaple Roundswell Shopping Centre","long":-4.082882462,"lat":51.067221883,"postcode":"EX31 3NL","street":"Gratton Way","town":"Barnstaple","phoneNumber":"01271328117","stockLevels":{"26":{"itemName":"Elvanse Adult","itemStrength":"30mg","stockLevelValue":"R"}}},{"storeId":264,"displayName":"Swindon Brunel Plaza","long":-1.785734701,"lat":51.560426923,"postcode":"SN1 1LF","street":"3 Brunel Plaza","town":"Swindon","phoneNumber":"01793536347","stockLevels":{"26":{"itemName":"Elvanse Adult","itemStrength":"30mg","stockLevelValue":"R"}}},{"storeId":267,"displayName":"Frome Market Place","long":-2.321209231,"lat":51.231644362,"postcode":"BA11 1AB","street":"10-11 Market Place","town":"Frome","phoneNumber":"01373462402","stockLevels":{"26":{"itemName":"Elvanse Adult","itemStrength":"30mg","stockLevelValue":"R"}}},{"storeId":268,"displayName":"Weston Super Mare High Street","long":-2.978290543,"lat":51.348236764,"postcode":"BS23 1JA","street":"52-56 High Street","town":"Weston Super Mare","phoneNumber":"01934629068","stockLevels":{"26":{"itemName":"Elvanse Adult","itemStrength":"30mg","stockLevelValue":"R"}}},{"storeId":272,"displayName":"Chester Foregate Street","long":-2.886768624,"lat":53.191866426,"postcode":"CH1 1NA","street":"47-55 Foregate Street","town":"Chester","phoneNumber":"01244328421","stockLevels":{"26":{"itemName":"Elvanse Adult","itemStrength":"30mg","stockLevelValue":"R"}}},{"storeId":274,"displayName":"Shrewsbury Pride Hill","long":-2.754518511,"lat":52.708875486,"postcode":"SY1 1DD","street":"7-9 Pride Hill","town":"Shrewsbury","phoneNumber":"01743351311","stockLevels":{"26":{"itemName":"Elvanse Adult","itemStrength":"30mg","stockLevelValue":"R"}}},{"storeId":275,"displayName":"Oswestry Church Street","long":-3.055483563,"lat":52.858578715,"postcode":"SY11 2SU","street":"5-7 Church Street","town":"Oswestry","phoneNumber":"01691659249","stockLevels":{"26":{"itemName":"Elvanse Adult","itemStrength":"30mg","stockLevelValue":"R"}}},{"storeId":276,"displayName":"Hereford High Street","long":-2.717130524,"lat":52.05630501,"postcode":"HR4 9AA","street":"42-43 Bewell Street","town":"Hereford","phoneNumber":"01432274941","stockLevels":{"26":{"itemName":"Elvanse Adult","itemStrength":"30mg","stockLevelValue":"R"}}},{"storeId":277,"displayName":"Telford Wellington","long":-2.516994528,"lat":52.700683507,"postcode":"TF1 1LU","street":"21-25 New Street","town":"Telford","phoneNumber":"01952223468","stockLevels":{"26":{"itemName":"Elvanse Adult","itemStrength":"30mg","stockLevelValue":"R"}}},{"storeId":280,"displayName":"Swansea The Quadrant Centre","long":-3.944377116,"lat":51.618423762,"postcode":"SA1 3AD","street":"17 The Quadrant","town":"Swansea","phoneNumber":"01792643461","stockLevels":{"26":{"itemName":"Elvanse Adult","itemStrength":"30mg","stockLevelValue":"R"}}},{"storeId":282,"displayName":"Henley On Thames Bell Street","long":-0.905035473,"lat":51.538576035,"postcode":"RG9 2BA","street":"5-7 Bell St","town":"Henley-on-Thames","phoneNumber":"01491574132","stockLevels":{"26":{"itemName":"Elvanse Adult","itemStrength":"30mg","stockLevelValue":"R"}}},{"storeId":283,"displayName":"Llanelli Vaughan Street","long":-4.161422223,"lat":51.682476559,"postcode":"SA15 3US","street":"1-3 Vaughan Street","town":"Llanelli","phoneNumber":"01554778381","stockLevels":{"26":{"itemName":"Elvanse Adult","itemStrength":"30mg","stockLevelValue":"R"}}},{"storeId":285,"displayName":"Aberdare Commercial Street","long":-3.443600419,"lat":51.713628326,"postcode":"CF44 7RW","street":"11 Commercial Street","town":"Aberdare","phoneNumber":"01685872235","stockLevels":{"26":{"itemName":"Elvanse Adult","itemStrength":"30mg","stockLevelValue":"R"}}},{"storeId":286,"displayName":"Pontypridd Taff Street","long":-3.340049538,"lat":51.602494026,"postcode":"CF37 4SU","street":"82-84 Taff Street","town":"Pontypridd","phoneNumber":"01443407954","stockLevels":{"26":{"itemName":"Elvanse Adult","itemStrength":"30mg","stockLevelValue":"R"}}},{"storeId":290,"displayName":"Neath Water Street","long":-3.802280236,"lat":51.662937727,"postcode":"SA11 3EP","street":"4-6 Water Street","town":"Neath","phoneNumber":"01639643201","stockLevels":{"26":{"itemName":"Elvanse Adult","itemStrength":"30mg","stockLevelValue":"R"}}},{"storeId":291,"displayName":"Port Talbot Aberfan Centre","long":-3.785456006,"lat":51.596885867,"postcode":"SA13 1PB","street":"Aberafan Centre","town":"Port Talbot","phoneNumber":"01639883809","stockLevels":{"26":{"itemName":"Elvanse Adult","itemStrength":"30mg","stockLevelValue":"R"}}},{"storeId":292,"displayName":"Newport Commercial Street","long":-2.995461891,"lat":51.58622234,"postcode":"NP20 1UE","street":"155-156 Commercial Street","town":"Newport","phoneNumber":"01633251212","stockLevels":{"26":{"itemName":"Elvanse Adult","itemStrength":"30mg","stockLevelValue":"R"}}},{"storeId":293,"displayName":"Carmarthen Red Street","long":-4.308199834,"lat":51.85712754,"postcode":"SA31 1QL","street":"12 Red Street","town":"Carmarthen","phoneNumber":"01267236368","stockLevels":{"26":{"itemName":"Elvanse Adult","itemStrength":"30mg","stockLevelValue":"R"}}},{"storeId":295,"displayName":"Barry Holton Road","long":-3.26611709,"lat":51.406472246,"postcode":"CF63 4SW","street":"121-125 Holton Road","town":"Barry","phoneNumber":"01446735280","stockLevels":{"26":{"itemName":"Elvanse Adult","itemStrength":"30mg","stockLevelValue":"R"}}},{"storeId":296,"displayName":"Bridgend Caroline Street","long":-3.577899619,"lat":51.505829588,"postcode":"CF31 1DQ","street":"8 Caroline Street","town":"Bridgend","phoneNumber":"01656659221","stockLevels":{"26":{"itemName":"Elvanse Adult","itemStrength":"30mg","stockLevelValue":"R"}}},{"storeId":297,"displayName":"Caernarfon Pool Lane","long":-4.271512751,"lat":53.139598799,"postcode":"LL55 2AL","street":"1-3 Pool Lane","town":"Caernarfon","phoneNumber":"01286673089","stockLevels":{"26":{"itemName":"Elvanse Adult","itemStrength":"30mg","stockLevelValue":"R"}}},{"storeId":299,"displayName":"Holyhead Market Street","long":-4.633541263,"lat":53.30990858,"postcode":"LL65 1UN","street":"29 Market Street","town":"Holyhead","phoneNumber":"01407762794","stockLevels":{"26":{"itemName":"Elvanse Adult","itemStrength":"30mg","stockLevelValue":"R"}}},{"storeId":300,"displayName":"Telford Shopping Centre","long":-2.446275427,"lat":52.676267249,"postcode":"TF3 4AU","street":"4-10 North Sherwood Street","town":"Telford","phoneNumber":"01952291351","stockLevels":{"26":{"itemName":"Elvanse Adult","itemStrength":"30mg","stockLevelValue":"R"}}},{"storeId":301,"displayName":"Taunton High Street","long":-3.10371007,"lat":51.01377682,"postcode":"TA1 3PT","street":"64-65 High St","town":"Taunton","phoneNumber":"01823276061","stockLevels":{"26":{"itemName":"Elvanse Adult","itemStrength":"30mg","stockLevelValue":"R"}}},{"storeId":304,"displayName":"Devizes The Brittox","long":-1.993787987,"lat":51.352198106,"postcode":"SN10 1AJ","street":"14-15 The Brittox","town":"Devizes","phoneNumber":"01380722022","stockLevels":{"26":{"itemName":"Elvanse Adult","itemStrength":"30mg","stockLevelValue":"G"}}},{"storeId":305,"displayName":"Yeovil Middle Street","long":-2.629668112,"lat":50.941515549,"postcode":"BA20 1LS","street":"37 Middle St","town":"Yeovil","phoneNumber":"01935426673","stockLevels":{"26":{"itemName":"Elvanse Adult","itemStrength":"30mg","stockLevelValue":"R"}}},{"storeId":309,"displayName":"Tiverton Fore Street","long":-3.487969528,"lat":50.902228035,"postcode":"EX16 6LN","street":"7 Fore St","town":"Tiverton","phoneNumber":"01884252144","stockLevels":{"26":{"itemName":"Elvanse Adult","itemStrength":"30mg","stockLevelValue":"R"}}},{"storeId":310,"displayName":"Exeter High Street","long":-3.527942246,"lat":50.725508398,"postcode":"EX4 3QD","street":"250-251 High Street","town":"Exeter","phoneNumber":"01392432244","stockLevels":{"26":{"itemName":"Elvanse Adult","itemStrength":"30mg","stockLevelValue":"R"}}},{"storeId":311,"displayName":"Exmouth Magnolia Walk","long":-3.412311259,"lat":50.619776,"postcode":"EX8 1HB","street":"21 Magnolia Walk","town":"Exmouth","phoneNumber":"01395275445","stockLevels":{"26":{"itemName":"Elvanse Adult","itemStrength":"30mg","stockLevelValue":"R"}}},{"storeId":313,"displayName":"Paignton Victoria Street","long":-3.566503167,"lat":50.435503567,"postcode":"TQ4 5DN","street":"12-14 Victoria St","town":"Paignton","phoneNumber":"01803559180","stockLevels":{"26":{"itemName":"Elvanse Adult","itemStrength":"30mg","stockLevelValue":"R"}}},{"storeId":314,"displayName":"Teignmouth Wellington Street","long":-3.495028634,"lat":50.546355076,"postcode":"TQ14 8HH","street":"5 Wellington St","town":"Teignmouth","phoneNumber":"01626772277","stockLevels":{"26":{"itemName":"Elvanse Adult","itemStrength":"30mg","stockLevelValue":"R"}}},{"storeId":315,"displayName":"Bridgwater Fore Street","long":-3.002611248,"lat":51.128721182,"postcode":"TA6 3NG","street":"34-38 Fore St","town":"Bridgwater","phoneNumber":"01278422011","stockLevels":{"26":{"itemName":"Elvanse Adult","itemStrength":"30mg","stockLevelValue":"R"}}},{"storeId":317,"displayName":"Truro Pydar Street","long":-5.053053947,"lat":50.264587999,"postcode":"TR1 2BD","street":"94 Pydar St","town":"Truro","phoneNumber":"01872272810","stockLevels":{"26":{"itemName":"Elvanse Adult","itemStrength":"30mg","stockLevelValue":"R"}}},{"storeId":318,"displayName":"Plymouth 59 Mutley Plain","long":-4.133746629,"lat":50.382318998,"postcode":"PL4 6JH","street":"59 Mutley Plain","town":"Plymouth","phoneNumber":"01752663590","stockLevels":{"26":{"itemName":"Elvanse Adult","itemStrength":"30mg","stockLevelValue":"R"}}},{"storeId":319,"displayName":"Barnstaple High Street","long":-4.060722233,"lat":51.080861835,"postcode":"EX31 1HX","street":"69-70 High Street","town":"Barnstaple","phoneNumber":"01271326772","stockLevels":{"26":{"itemName":"Elvanse Adult","itemStrength":"30mg","stockLevelValue":"R"}}},{"storeId":320,"displayName":"Ebbw Vale Market Street","long":-3.207224723,"lat":51.779829836,"postcode":"NP23 6HL","street":"11 Market St","town":"Ebbw Vale","phoneNumber":"01495302159","stockLevels":{"26":{"itemName":"Elvanse Adult","itemStrength":"30mg","stockLevelValue":"R"}}},{"storeId":322,"displayName":"Cardiff Albany Road","long":-3.168046207,"lat":51.493768815,"postcode":"CF24 3LN","street":"77-79 Albany Rd","town":"Cardiff","phoneNumber":"02920483043","stockLevels":{"26":{"itemName":"Elvanse Adult","itemStrength":"30mg","stockLevelValue":"R"}}},{"storeId":323,"displayName":"Cardiff Queen Street","long":-3.176533269,"lat":51.481562866,"postcode":"CF10 2RG","street":"36 Queen St","town":"Cardiff","phoneNumber":"02920231291","stockLevels":{"26":{"itemName":"Elvanse Adult","itemStrength":"30mg","stockLevelValue":"A"}}},{"storeId":324,"displayName":"Cardiff Cowbridge Road East","long":-3.199209108,"lat":51.481342094,"postcode":"CF11 9AL","street":"213-215 Cowbridge Road East","town":"Cardiff","phoneNumber":"02920225491","stockLevels":{"26":{"itemName":"Elvanse Adult","itemStrength":"30mg","stockLevelValue":"R"}}},{"storeId":326,"displayName":"Tewkesbury High Street","long":-2.156185931,"lat":51.995153545,"postcode":"GL20 5JZ","street":"92 High St","town":"Tewkesbury","phoneNumber":"01684292122","stockLevels":{"26":{"itemName":"Elvanse Adult","itemStrength":"30mg","stockLevelValue":"R"}}},{"storeId":328,"displayName":"Pembroke Dock Dimond Street","long":-4.942070042,"lat":51.693710099,"postcode":"SA72 6AH","street":"8-10 Dimond St","town":"Pembroke Dock","phoneNumber":"01646622429","stockLevels":{"26":{"itemName":"Elvanse Adult","itemStrength":"30mg","stockLevelValue":"R"}}},{"storeId":330,"displayName":"Oxford Cornmarket Street","long":-1.257737102,"lat":51.752562668,"postcode":"OX1 3HL","street":"8-10 Cornmarket Street","town":"Oxford","phoneNumber":"01865247461","stockLevels":{"26":{"itemName":"Elvanse Adult","itemStrength":"30mg","stockLevelValue":"R"}}},{"storeId":331,"displayName":"Cardiff Penarth","long":-3.175394136,"lat":51.438934483,"postcode":"CF64 1YJ","street":"24 Windsor Rd","town":"Penarth","phoneNumber":"02920707710","stockLevels":{"26":{"itemName":"Elvanse Adult","itemStrength":"30mg","stockLevelValue":"R"}}},{"storeId":332,"displayName":"Abergavenny Cross Street","long":-3.018212547,"lat":51.821558863,"postcode":"NP7 5EH","street":"2 Cross Street","town":"Abergavenny","phoneNumber":"01873853207","stockLevels":{"26":{"itemName":"Elvanse Adult","itemStrength":"30mg","stockLevelValue":"R"}}},{"storeId":333,"displayName":"Tenby High Street","long":-4.699949599,"lat":51.672152707,"postcode":"SA70 7HD","street":"High St","town":"Tenby","phoneNumber":"01834842120","stockLevels":{"26":{"itemName":"Elvanse Adult","itemStrength":"30mg","stockLevelValue":"G"}}},{"storeId":335,"displayName":"Solihull Mell Square","long":-1.77641261,"lat":52.41331513,"postcode":"B91 3AZ","street":"7 Mell Sq","town":"Solihull","phoneNumber":"01217057553","stockLevels":{"26":{"itemName":"Elvanse Adult","itemStrength":"30mg","stockLevelValue":"R"}}},{"storeId":340,"displayName":"Porthcawl John Street","long":-3.704179026,"lat":51.478308023,"postcode":"CF36 3BD","street":"72-74 John St","town":"Porthcawl","phoneNumber":"01656782508","stockLevels":{"26":{"itemName":"Elvanse Adult","itemStrength":"30mg","stockLevelValue":"G"}}},{"storeId":341,"displayName":"Treorchy High Street","long":-3.504987597,"lat":51.659508911,"postcode":"CF42 6AT","street":"203 High St","town":"Treorchy","phoneNumber":"01443772240","stockLevels":{"26":{"itemName":"Elvanse Adult","itemStrength":"30mg","stockLevelValue":"R"}}},{"storeId":342,"displayName":"Blackwood Market Place","long":-3.195754625,"lat":51.66612277,"postcode":"NP12 1AU","street":"The Market Pl","town":"Blackwood","phoneNumber":"01495225208","stockLevels":{"26":{"itemName":"Elvanse Adult","itemStrength":"30mg","stockLevelValue":"R"}}},{"storeId":345,"displayName":"Ludlow Bull Ring","long":-2.717334205,"lat":52.368698134,"postcode":"SY8 1AA","street":"34 Bull Ring","town":"Ludlow","phoneNumber":"01584872548","stockLevels":{"26":{"itemName":"Elvanse Adult","itemStrength":"30mg","stockLevelValue":"R"}}},{"storeId":346,"displayName":"Oxford Headington London Road","long":-1.212693713,"lat":51.75948071,"postcode":"OX3 9AJ","street":"96 London Road","town":"Oxford","phoneNumber":"01865762518","stockLevels":{"26":{"itemName":"Elvanse Adult","itemStrength":"30mg","stockLevelValue":"R"}}},{"storeId":349,"displayName":"Buckingham Market Hill","long":-0.987554632,"lat":52.000538406,"postcode":"MK18 1JX","street":"11 Market Hill","town":"Buckingham","phoneNumber":"01280813263","stockLevels":{"26":{"itemName":"Elvanse Adult","itemStrength":"30mg","stockLevelValue":"R"}}},{"storeId":350,"displayName":"Bristol Nailsea","long":-2.759623716,"lat":51.433528099,"postcode":"BS48 1RQ","street":"29-30 Somerset Square","town":"Bristol","phoneNumber":"01275856855","stockLevels":{"26":{"itemName":"Elvanse Adult","itemStrength":"30mg","stockLevelValue":"R"}}},{"storeId":351,"displayName":"Plympton Ridgeway","long":-4.051888557,"lat":50.387514986,"postcode":"PL7 2ZN","street":"3 St. Stephens Place","town":"Plymouth","phoneNumber":"01752337892","stockLevels":{"26":{"itemName":"Elvanse Adult","itemStrength":"30mg","stockLevelValue":"R"}}},{"storeId":352,"displayName":"Wellington High Street","long":-3.226500356,"lat":50.978910415,"postcode":"TA21 8RA","street":"6 High St","town":"Wellington","phoneNumber":"01823662170","stockLevels":{"26":{"itemName":"Elvanse Adult","itemStrength":"30mg","stockLevelValue":"R"}}},{"storeId":353,"displayName":"Droitwich St Andrews Square","long":-2.149965424,"lat":52.26825702,"postcode":"WR9 8TJ","street":"50 St. Andrews Sq","town":"Droitwich","phoneNumber":"01905773219","stockLevels":{"26":{"itemName":"Elvanse Adult","itemStrength":"30mg","stockLevelValue":"R"}}},{"storeId":354,"displayName":"Birmingham Rowley Regis","long":-2.042032413,"lat":52.475522443,"postcode":"B65 0DR","street":"24 High St","town":"Rowley Regis","phoneNumber":"01215592827","stockLevels":{"26":{"itemName":"Elvanse Adult","itemStrength":"30mg","stockLevelValue":"R"}}},{"storeId":355,"displayName":"Birmingham Kingstanding","long":-1.883827681,"lat":52.55230107,"postcode":"B44 9SU","street":"631-633 Kingstanding Rd","town":"BIRMINGHAM","phoneNumber":"01213543800","stockLevels":{"26":{"itemName":"Elvanse Adult","itemStrength":"30mg","stockLevelValue":"R"}}},{"storeId":356,"displayName":"Sherborne Cheap Street","long":-2.515443683,"lat":50.947552241,"postcode":"DT9 3BA","street":"29 Cheap St","town":"Sherborne","phoneNumber":"01935812345","stockLevels":{"26":{"itemName":"Elvanse Adult","itemStrength":"30mg","stockLevelValue":"R"}}},{"storeId":358,"displayName":"Melksham High Street","long":-2.13829617,"lat":51.373201734,"postcode":"SN12 6JY","street":"19 High St","town":"Melksham","phoneNumber":"01225703139","stockLevels":{"26":{"itemName":"Elvanse Adult","itemStrength":"30mg","stockLevelValue":"R"}}},{"storeId":361,"displayName":"Oxford Cowley Road","long":-1.23507977,"lat":51.747427317,"postcode":"OX4 1UT","street":"151A Cowley Rd","town":"Oxford","phoneNumber":"01865243633","stockLevels":{"26":{"itemName":"Elvanse Adult","itemStrength":"30mg","stockLevelValue":"R"}}},{"storeId":363,"displayName":"Warwick Westgate House","long":-1.591430851,"lat":52.281258297,"postcode":"CV34 4DH","street":"1 Market St","town":"Warwick","phoneNumber":"01926491927","stockLevels":{"26":{"itemName":"Elvanse Adult","itemStrength":"30mg","stockLevelValue":"G"}}},{"storeId":364,"displayName":"Welshpool Broad Street","long":-3.147654613,"lat":52.660041968,"postcode":"SY21 7SD","street":"16-17 Broad St","town":"Welshpool","phoneNumber":"01938552152","stockLevels":{"26":{"itemName":"Elvanse Adult","itemStrength":"30mg","stockLevelValue":"R"}}},{"storeId":365,"displayName":"Torquay Union Street","long":-3.529676997,"lat":50.466419364,"postcode":"TQ2 5PS","street":"66-68 Union St","town":"Torquay","phoneNumber":"01803292708","stockLevels":{"26":{"itemName":"Elvanse Adult","itemStrength":"30mg","stockLevelValue":"R"}}},{"storeId":366,"displayName":"Newtown High Street","long":-3.316051759,"lat":52.514929842,"postcode":"SY16 2NU","street":"20-21 High St","town":"Newtown","phoneNumber":"01686626241","stockLevels":{"26":{"itemName":"Elvanse Adult","itemStrength":"30mg","stockLevelValue":"R"}}},{"storeId":367,"displayName":"Whitchurch Watergate Street","long":-2.683453717,"lat":52.968566128,"postcode":"SY13 1DW","street":"10-12 Watergate St","town":"Whitchurch","phoneNumber":"01948662060","stockLevels":{"26":{"itemName":"Elvanse Adult","itemStrength":"30mg","stockLevelValue":"R"}}},{"storeId":368,"displayName":"Newport High Street","long":-2.3774522,"lat":52.768227846,"postcode":"TF10 7AQ","street":"50-52 High St","town":"Newport","phoneNumber":"01952811391","stockLevels":{"26":{"itemName":"Elvanse Adult","itemStrength":"30mg","stockLevelValue":"G"}}},{"storeId":371,"displayName":"Wells High Street","long":-2.646363907,"lat":51.208817539,"postcode":"BA5 2AA","street":"19-21 High St","town":"Wells","phoneNumber":"01749673138","stockLevels":{"26":{"itemName":"Elvanse Adult","itemStrength":"30mg","stockLevelValue":"R"}}},{"storeId":372,"displayName":"Plymouth Plymstock","long":-4.091737817,"lat":50.359893839,"postcode":"PL9 7AU","street":"20 The Broadway","town":"Plymouth","phoneNumber":"01752402372","stockLevels":{"26":{"itemName":"Elvanse Adult","itemStrength":"30mg","stockLevelValue":"R"}}},{"storeId":373,"displayName":"Sutton Coldfield Birmingham Road","long":-1.827286337,"lat":52.536320175,"postcode":"B72 1YH","street":"352-354 Birmingham Rd","town":"Sutton Coldfield","phoneNumber":"01213731355","stockLevels":{"26":{"itemName":"Elvanse Adult","itemStrength":"30mg","stockLevelValue":"R"}}},{"storeId":375,"displayName":"St Austell Fore Street","long":-4.793895199,"lat":50.338325243,"postcode":"PL25 5EP","street":"29 Fore St","town":"St. Austell","phoneNumber":"0172672112","stockLevels":{"26":{"itemName":"Elvanse Adult","itemStrength":"30mg","stockLevelValue":"R"}}},{"storeId":380,"displayName":"Rhyl High Street","long":-3.490932667,"lat":53.321750093,"postcode":"LL18 1EN","street":"49-51 High St","town":"Rhyl","phoneNumber":"01745344147","stockLevels":{"26":{"itemName":"Elvanse Adult","itemStrength":"30mg","stockLevelValue":"R"}}},{"storeId":384,"displayName":"Chard Fore Street","long":-2.965246878,"lat":50.872929278,"postcode":"TA20 1PH","street":"5 Fore St","town":"Chard","phoneNumber":"0146063114","stockLevels":{"26":{"itemName":"Elvanse Adult","itemStrength":"30mg","stockLevelValue":"R"}}},{"storeId":385,"displayName":"Glasgow Central Station","long":-4.258491881,"lat":55.859737677,"postcode":"G1 3SQ","street":"Central Station","town":"Glasgow","phoneNumber":"01412217107","stockLevels":{"26":{"itemName":"Elvanse Adult","itemStrength":"30mg","stockLevelValue":"R"}}},{"storeId":386,"displayName":"Dartmouth The Quay","long":-3.578475914,"lat":50.351321486,"postcode":"TQ6 9PS","street":"5-6 The Quay","town":"Dartmouth","phoneNumber":"01803832742","stockLevels":{"26":{"itemName":"Elvanse Adult","itemStrength":"30mg","stockLevelValue":"R"}}},{"storeId":388,"displayName":"Kingsbridge Prince Of Wales Road","long":-3.777181601,"lat":50.283498094,"postcode":"TQ7 1DX","street":"Prince of Wales Rd","town":"Kingsbridge","phoneNumber":"01548852354","stockLevels":{"26":{"itemName":"Elvanse Adult","itemStrength":"30mg","stockLevelValue":"R"}}},{"storeId":389,"displayName":"Penzance Market Jew Street","long":-5.534996954,"lat":50.119409777,"postcode":"TR18 2LE","street":"100-102 Market Jew St","town":"Penzance","phoneNumber":"01736362135","stockLevels":{"26":{"itemName":"Elvanse Adult","itemStrength":"30mg","stockLevelValue":"R"}}},{"storeId":390,"displayName":"Plymouth Drakes Circus","long":-4.139725711,"lat":50.37335742,"postcode":"PL1 1EA","street":"1 Drake Circus","town":"Plymouth","phoneNumber":"01752266271","stockLevels":{"26":{"itemName":"Elvanse Adult","itemStrength":"30mg","stockLevelValue":"R"}}},{"storeId":391,"displayName":"Newquay Bank Street","long":-5.08483788,"lat":50.413705828,"postcode":"TR7 1DH","street":"15 Bank St","town":"Newquay","phoneNumber":"01637872014","stockLevels":{"26":{"itemName":"Elvanse Adult","itemStrength":"30mg","stockLevelValue":"R"}}},{"storeId":392,"displayName":"Bridgnorth High Street","long":-2.420302848,"lat":52.535887212,"postcode":"WV16 4DB","street":"30-31 High St","town":"Bridgnorth","phoneNumber":"01746763127","stockLevels":{"26":{"itemName":"Elvanse Adult","itemStrength":"30mg","stockLevelValue":"R"}}},{"storeId":394,"displayName":"Cirencester Cricklade Street","long":-1.967208929,"lat":51.715824388,"postcode":"GL7 1HY","street":"39-43 Cricklade St","town":"Cirencester","phoneNumber":"01285653019","stockLevels":{"26":{"itemName":"Elvanse Adult","itemStrength":"30mg","stockLevelValue":"R"}}},{"storeId":395,"displayName":"Sidmouth Fore Street","long":-3.237543644,"lat":50.679491414,"postcode":"EX10 8AQ","street":"Fore St","town":"Sidmouth","phoneNumber":"01395513307","stockLevels":{"26":{"itemName":"Elvanse Adult","itemStrength":"30mg","stockLevelValue":"R"}}},{"storeId":396,"displayName":"Falmouth Market Street","long":-5.07054836,"lat":50.15604218,"postcode":"TR11 3AB","street":"47-49 Market St","town":"Falmouth","phoneNumber":"01326312373","stockLevels":{"26":{"itemName":"Elvanse Adult","itemStrength":"30mg","stockLevelValue":"R"}}},{"storeId":399,"displayName":"Chippenham High Street","long":-2.115654883,"lat":51.458457678,"postcode":"SN15 3ER","street":"8-9 High St","town":"Chippenham","phoneNumber":"01249652087","stockLevels":{"26":{"itemName":"Elvanse Adult","itemStrength":"30mg","stockLevelValue":"R"}}},{"storeId":401,"displayName":"Tavistock Duke Street","long":-4.144143173,"lat":50.550606886,"postcode":"PL19 0BA","street":"5-6 Duke St","town":"Tavistock","phoneNumber":"01822612609","stockLevels":{"26":{"itemName":"Elvanse Adult","itemStrength":"30mg","stockLevelValue":"R"}}},{"storeId":402,"displayName":"Swindon Wootton Bassett","long":-1.903555158,"lat":51.542258116,"postcode":"SN4 7AY","street":"133 High Street","town":"Swindon","phoneNumber":"01793852364","stockLevels":{"26":{"itemName":"Elvanse Adult","itemStrength":"30mg","stockLevelValue":"R"}}},{"storeId":405,"displayName":"Bodmin Fore Street","long":-4.721195206,"lat":50.471036698,"postcode":"PL31 2HL","street":"34 Fore St","town":"Bodmin","phoneNumber":"0120872836","stockLevels":{"26":{"itemName":"Elvanse Adult","itemStrength":"30mg","stockLevelValue":"G"}}},{"storeId":411,"displayName":"Okehampton Fore Street","long":-4.002448805,"lat":50.739069907,"postcode":"EX20 1HB","street":"27-28 Fore St","town":"Okehampton","phoneNumber":"01837543220","stockLevels":{"26":{"itemName":"Elvanse Adult","itemStrength":"30mg","stockLevelValue":"R"}}},{"storeId":412,"displayName":"Dursley Parsonage Street","long":-2.355294879,"lat":51.681555793,"postcode":"GL11 4AA","street":"70-72 Parsonage St","town":"Dursley","phoneNumber":"01453542275","stockLevels":{"26":{"itemName":"Elvanse Adult","itemStrength":"30mg","stockLevelValue":"R"}}},{"storeId":415,"displayName":"Helston Meneage Street","long":-5.27226808,"lat":50.099726565,"postcode":"TR13 8QY","street":"40 Meneage St","town":"Helston","phoneNumber":"01326572030","stockLevels":{"26":{"itemName":"Elvanse Adult","itemStrength":"30mg","stockLevelValue":"R"}}},{"storeId":417,"displayName":"Burnham On Sea High Street","long":-2.997364954,"lat":51.23468572,"postcode":"TA8 1NX","street":"15-17 High St","town":"Burnham-on-Sea","phoneNumber":"01278782029","stockLevels":{"26":{"itemName":"Elvanse Adult","itemStrength":"30mg","stockLevelValue":"R"}}},{"storeId":419,"displayName":"Malmesbury High Street","long":-2.098118908,"lat":51.583050028,"postcode":"SN16 9AA","street":"39 High St","town":"Malmesbury","phoneNumber":"01666823130","stockLevels":{"26":{"itemName":"Elvanse Adult","itemStrength":"30mg","stockLevelValue":"R"}}},{"storeId":420,"displayName":"Keynsham High Street","long":-2.498820563,"lat":51.415479687,"postcode":"BS31 1DX","street":"40 High Street","town":"Bristol","phoneNumber":"01179863247","stockLevels":{"26":{"itemName":"Elvanse Adult","itemStrength":"30mg","stockLevelValue":"R"}}},{"storeId":421,"displayName":"Mold 19-21 High Street","long":-3.142131523,"lat":53.167190937,"postcode":"CH7 1AZ","street":"19-21 High St","town":"Mold","phoneNumber":"01352700325","stockLevels":{"26":{"itemName":"Elvanse Adult","itemStrength":"30mg","stockLevelValue":"R"}}},{"storeId":424,"displayName":"Bridport West Street","long":-2.758490158,"lat":50.7338737,"postcode":"DT6 3QJ","street":"3-5 West St","town":"Bridport","phoneNumber":"01308422475","stockLevels":{"26":{"itemName":"Elvanse Adult","itemStrength":"30mg","stockLevelValue":"R"}}},{"storeId":425,"displayName":"Market Drayton Cheshire Street","long":-2.485754633,"lat":52.905498765,"postcode":"TF9 1PR","street":"48-50 Cheshire Street","town":"Market Drayton","phoneNumber":"01630652660","stockLevels":{"26":{"itemName":"Elvanse Adult","itemStrength":"30mg","stockLevelValue":"R"}}},{"storeId":427,"displayName":"Bude Belle Vue","long":-4.544776697,"lat":50.829981075,"postcode":"EX23 8JL","street":"20 Belle Vue","town":"Bude","phoneNumber":"01288352906","stockLevels":{"26":{"itemName":"Elvanse Adult","itemStrength":"30mg","stockLevelValue":"R"}}},{"storeId":428,"displayName":"Swansea Mumbles","long":-3.997875989,"lat":51.574837451,"postcode":"SA3 4DN","street":"133 Mumbles Road","town":"Swansea","phoneNumber":"01792366195","stockLevels":{"26":{"itemName":"Elvanse Adult","itemStrength":"30mg","stockLevelValue":"R"}}},{"storeId":432,"displayName":"Ross On Wye Market Place","long":-2.584049652,"lat":51.914508438,"postcode":"HR9 5NX","street":"5 Market Pl","town":"Ross-on-Wye","phoneNumber":"01989562798","stockLevels":{"26":{"itemName":"Elvanse Adult","itemStrength":"30mg","stockLevelValue":"R"}}},{"storeId":433,"displayName":"Warminster Market Place","long":-2.179414462,"lat":51.204702514,"postcode":"BA12 9AZ","street":"39 Market Pl","town":"Warminster","phoneNumber":"01985212303","stockLevels":{"26":{"itemName":"Elvanse Adult","itemStrength":"30mg","stockLevelValue":"G"}}},{"storeId":434,"displayName":"Denbigh High Street","long":-3.419200157,"lat":53.183287049,"postcode":"LL16 3RY","street":"36-38 High St","town":"Denbigh","phoneNumber":"01745812860","stockLevels":{"26":{"itemName":"Elvanse Adult","itemStrength":"30mg","stockLevelValue":"R"}}},{"storeId":438,"displayName":"Christchurch Saxon Square","long":-1.776946817,"lat":50.735257702,"postcode":"BH23 1QB","street":"23 Saxon Sq","town":"Christchurch","phoneNumber":"01202483034","stockLevels":{"26":{"itemName":"Elvanse Adult","itemStrength":"30mg","stockLevelValue":"R"}}},{"storeId":439,"displayName":"Minehead The Parade","long":-3.477302936,"lat":51.20568994,"postcode":"TA24 5UG","street":"14-16 The Parade","town":"Minehead","phoneNumber":"01643702004","stockLevels":{"26":{"itemName":"Elvanse Adult","itemStrength":"30mg","stockLevelValue":"R"}}},{"storeId":441,"displayName":"Crewkerne Market Street","long":-2.796102089,"lat":50.883540293,"postcode":"TA18 7LA","street":"8-10 MARKET STREET","town":"CREWKERNE","phoneNumber":"0146072310","stockLevels":{"26":{"itemName":"Elvanse Adult","itemStrength":"30mg","stockLevelValue":"R"}}},{"storeId":443,"displayName":"Llandudno Victoria Centre","long":-3.828946082,"lat":53.322861785,"postcode":"LL30 2NG","street":"9 Victoria Centre","town":"Llandudno","phoneNumber":"01492876633","stockLevels":{"26":{"itemName":"Elvanse Adult","itemStrength":"30mg","stockLevelValue":"R"}}},{"storeId":444,"displayName":"Ilminster East Street","long":-2.909202537,"lat":50.92668772,"postcode":"TA19 0AJ","street":"6 East St","town":"Ilminster","phoneNumber":"0146052648","stockLevels":{"26":{"itemName":"Elvanse Adult","itemStrength":"30mg","stockLevelValue":"R"}}},{"storeId":445,"displayName":"Liskeard Bay Tree Hill","long":-4.464355013,"lat":50.453556279,"postcode":"PL14 4BG","street":"21-22 Bay Tree Hill","town":"Liskeard","phoneNumber":"01579343183","stockLevels":{"26":{"itemName":"Elvanse Adult","itemStrength":"30mg","stockLevelValue":"R"}}},{"storeId":446,"displayName":"Bristol Clifton Down Shopping Centre","long":-2.610752481,"lat":51.464008148,"postcode":"BS8 2NN","street":"9 Clifton Down Shopping Ctr","town":"Bristol","phoneNumber":"01179742896","stockLevels":{"26":{"itemName":"Elvanse Adult","itemStrength":"30mg","stockLevelValue":"G"}}},{"storeId":447,"displayName":"Crediton High Street","long":-3.658815689,"lat":50.790845655,"postcode":"EX17 3LQ","street":"126 High St","town":"Crediton","phoneNumber":"01363772062","stockLevels":{"26":{"itemName":"Elvanse Adult","itemStrength":"30mg","stockLevelValue":"R"}}},{"storeId":449,"displayName":"Lampeter Harford Square","long":-4.078603653,"lat":52.113145492,"postcode":"SA48 7DX","street":"9A Harford Sq","town":"Lampeter","phoneNumber":"01570422568","stockLevels":{"26":{"itemName":"Elvanse Adult","itemStrength":"30mg","stockLevelValue":"R"}}},{"storeId":451,"displayName":"Chepstow High Street","long":-2.675057594,"lat":51.641435799,"postcode":"NP16 5LQ","street":"17 High St","town":"Chepstow","phoneNumber":"01291622042","stockLevels":{"26":{"itemName":"Elvanse Adult","itemStrength":"30mg","stockLevelValue":"R"}}},{"storeId":452,"displayName":"Marlborough High Street","long":-1.732952133,"lat":51.419817657,"postcode":"SN8 1LT","street":"102-103 High St","town":"Marlborough","phoneNumber":"01672512351","stockLevels":{"26":{"itemName":"Elvanse Adult","itemStrength":"30mg","stockLevelValue":"R"}}},{"storeId":453,"displayName":"Chipping Norton High Street","long":-1.544635463,"lat":51.941926213,"postcode":"OX7 5AD","street":"17-18 High St","town":"Chipping Norton","phoneNumber":"01608642523","stockLevels":{"26":{"itemName":"Elvanse Adult","itemStrength":"30mg","stockLevelValue":"R"}}},{"storeId":454,"displayName":"Bristol St Augustines Parade","long":-2.598206871,"lat":51.453525666,"postcode":"BS1 4UR","street":"19-20 St. Augustines Pde","town":"Bristol","phoneNumber":"01179276311","stockLevels":{"26":{"itemName":"Elvanse Adult","itemStrength":"30mg","stockLevelValue":"G"}}},{"storeId":455,"displayName":"Llandrindod Wells Station Crescent","long":-3.379052026,"lat":52.241522023,"postcode":"LD1 5BB","street":"Victoria House","town":"Llandrindod Wells","phoneNumber":"01597822311","stockLevels":{"26":{"itemName":"Elvanse Adult","itemStrength":"30mg","stockLevelValue":"G"}}},{"storeId":456,"displayName":"Wallingford Market Place","long":-1.124265263,"lat":51.599851013,"postcode":"OX10 0EG","street":"7-8 Market Pl","town":"Wallingford","phoneNumber":"01491839061","stockLevels":{"26":{"itemName":"Elvanse Adult","itemStrength":"30mg","stockLevelValue":"R"}}},{"storeId":458,"displayName":"Aberaeron Bridge Street","long":-4.258870761,"lat":52.242246337,"postcode":"SA46 0AP","street":"5A Bridge Street","town":"Aberaeron","phoneNumber":"01545571231","stockLevels":{"26":{"itemName":"Elvanse Adult","itemStrength":"30mg","stockLevelValue":"R"}}},{"storeId":459,"displayName":"Newbury Northbrook Street","long":-1.32412765,"lat":51.403239229,"postcode":"RG14 1DJ","street":"4-5 Northbrook St","town":"Newbury","phoneNumber":"0163540396","stockLevels":{"26":{"itemName":"Elvanse Adult","itemStrength":"30mg","stockLevelValue":"R"}}},{"storeId":461,"displayName":"Winsford Dingle Walk","long":-2.527525681,"lat":53.191743248,"postcode":"CW7 1BA","street":"5-7 Dingle Walk","town":"Winsford","phoneNumber":"01606593661","stockLevels":{"26":{"itemName":"Elvanse Adult","itemStrength":"30mg","stockLevelValue":"R"}}},{"storeId":463,"displayName":"Fishguard Market Square","long":-4.976592326,"lat":51.993808321,"postcode":"SA65 9HA","street":"Market Sq","town":"Fishguard","phoneNumber":"01348872856","stockLevels":{"26":{"itemName":"Elvanse Adult","itemStrength":"30mg","stockLevelValue":"R"}}},{"storeId":464,"displayName":"Cardigan Prendre","long":-4.660767443,"lat":52.084404703,"postcode":"SA43 1JL","street":"3 Pendre","town":"Cardigan","phoneNumber":"01239621578","stockLevels":{"26":{"itemName":"Elvanse Adult","itemStrength":"30mg","stockLevelValue":"R"}}},{"storeId":465,"displayName":"Flint Church Street","long":-3.135172273,"lat":53.249186374,"postcode":"CH6 5AE","street":"58 Church St","town":"Flint","phoneNumber":"01352732312","stockLevels":{"26":{"itemName":"Elvanse Adult","itemStrength":"30mg","stockLevelValue":"R"}}},{"storeId":468,"displayName":"Tonypandy Dunraven Street","long":-3.454404771,"lat":51.621732994,"postcode":"CF40 1AS","street":"118 Dunraven St","town":"Tonypandy","phoneNumber":"01443432478","stockLevels":{"26":{"itemName":"Elvanse Adult","itemStrength":"30mg","stockLevelValue":"R"}}},{"storeId":469,"displayName":"Abertillery Church Street","long":-3.134257509,"lat":51.730878778,"postcode":"NP13 1DA","street":"9-15 Church Street","town":"Abertillery","phoneNumber":"01495320189","stockLevels":{"26":{"itemName":"Elvanse Adult","itemStrength":"30mg","stockLevelValue":"R"}}},{"storeId":471,"displayName":"South Molton Broad Street","long":-3.834794186,"lat":51.017970823,"postcode":"EX36 3AQ","street":"18 Broad St","town":"South Molton","phoneNumber":"01769572576","stockLevels":{"26":{"itemName":"Elvanse Adult","itemStrength":"30mg","stockLevelValue":"R"}}},{"storeId":472,"displayName":"Abingdon Bury Street","long":-1.282681821,"lat":51.671175392,"postcode":"OX14 3QT","street":"27 Bury Street","town":"Abingdon","phoneNumber":"01235520056","stockLevels":{"26":{"itemName":"Elvanse Adult","itemStrength":"30mg","stockLevelValue":"R"}}},{"storeId":473,"displayName":"Bristol Kingswood","long":-2.508739227,"lat":51.463065724,"postcode":"BS15 8LP","street":"10-11 Kings Chase Shopping Centre","town":"Bristol","phoneNumber":"01179673834","stockLevels":{"26":{"itemName":"Elvanse Adult","itemStrength":"30mg","stockLevelValue":"R"}}},{"storeId":474,"displayName":"Ammanford Quay Street","long":-3.988127183,"lat":51.7922152,"postcode":"SA18 3DB","street":"23-25 Quay Street","town":"Ammanford","phoneNumber":"01269592067","stockLevels":{"26":{"itemName":"Elvanse Adult","itemStrength":"30mg","stockLevelValue":"G"}}},{"storeId":476,"displayName":"Shotton Chester Road","long":-3.039607457,"lat":53.212546265,"postcode":"CH5 1BX","street":"7-9 Chester Road West","town":"Deeside","phoneNumber":"01244830452","stockLevels":{"26":{"itemName":"Elvanse Adult","itemStrength":"30mg","stockLevelValue":"R"}}},{"storeId":478,"displayName":"Newcastle Emlyn","long":-4.467800574,"lat":52.038507435,"postcode":"SA38 9AP","street":"Sycamore St","town":"Newcastle Upon Tyne","phoneNumber":"01239710240","stockLevels":{"26":{"itemName":"Elvanse Adult","itemStrength":"30mg","stockLevelValue":"R"}}},{"storeId":479,"displayName":"Wokingham Market Place","long":-0.833395652,"lat":51.410668099,"postcode":"RG40 1AT","street":"40 Market Pl","town":"Wokingham","phoneNumber":"01189784294","stockLevels":{"26":{"itemName":"Elvanse Adult","itemStrength":"30mg","stockLevelValue":"R"}}},{"storeId":482,"displayName":"Ruthin Stryd Y Castell","long":-3.310795101,"lat":53.113637582,"postcode":"LL15 1DP","street":"Strud Y Castell","town":"Ruthin","phoneNumber":"01824703151","stockLevels":{"26":{"itemName":"Elvanse Adult","itemStrength":"30mg","stockLevelValue":"G"}}},{"storeId":483,"displayName":"Reading Woodley","long":-0.906065738,"lat":51.452830509,"postcode":"RG5 3JP","street":"89-91 Crockhamwell Road","town":"Reading","phoneNumber":"01189695253","stockLevels":{"26":{"itemName":"Elvanse Adult","itemStrength":"30mg","stockLevelValue":"G"}}},{"storeId":487,"displayName":"Llangefni High Street","long":-4.311902723,"lat":53.255927854,"postcode":"LL77 7LT","street":"4 High St","town":"Llangefni","phoneNumber":"01248750278","stockLevels":{"26":{"itemName":"Elvanse Adult","itemStrength":"30mg","stockLevelValue":"R"}}},{"storeId":489,"displayName":"Bristol Henleaze","long":-2.612259636,"lat":51.485184534,"postcode":"BS9 4JT","street":"55 Henleaze Rd","town":"Bristol","phoneNumber":"01179624460","stockLevels":{"26":{"itemName":"Elvanse Adult","itemStrength":"30mg","stockLevelValue":"R"}}},{"storeId":490,"displayName":"Kenilworth Talisman Square","long":-1.577643738,"lat":52.342289763,"postcode":"CV8 1JB","street":"2 Talisman Sq","town":"Kenilworth","phoneNumber":"01926854606","stockLevels":{"26":{"itemName":"Elvanse Adult","itemStrength":"30mg","stockLevelValue":"R"}}},{"storeId":491,"displayName":"Bristol Thornbury","long":-2.52576066,"lat":51.607492895,"postcode":"BS35 2AR","street":"43 High Street","town":"Bristol","phoneNumber":"01454417713","stockLevels":{"26":{"itemName":"Elvanse Adult","itemStrength":"30mg","stockLevelValue":"R"}}},{"storeId":492,"displayName":"Dawlish The Strand","long":-3.468240737,"lat":50.581374901,"postcode":"EX7 9PS","street":"21 The Strand","town":"Dawlish","phoneNumber":"01626889139","stockLevels":{"26":{"itemName":"Elvanse Adult","itemStrength":"30mg","stockLevelValue":"R"}}},{"storeId":494,"displayName":"Cardiff Whitchurch","long":-3.219421599,"lat":51.512938029,"postcode":"CF14 1DA","street":"15 Merthyr Road","town":"Cardiff","phoneNumber":"02920620185","stockLevels":{"26":{"itemName":"Elvanse Adult","itemStrength":"30mg","stockLevelValue":"R"}}},{"storeId":495,"displayName":"Brackley Market Place","long":-1.149807098,"lat":52.027022341,"postcode":"NN13 7DP","street":"40 Market Pl","town":"Brackley","phoneNumber":"01280702213","stockLevels":{"26":{"itemName":"Elvanse Adult","itemStrength":"30mg","stockLevelValue":"R"}}},{"storeId":500,"displayName":"Leeds Trinity","long":-1.545792208,"lat":53.797252223,"postcode":"LS1 5EY","street":"1 Bond Street Leeds Trinity","town":"Leeds","phoneNumber":"01132433551","stockLevels":{"26":{"itemName":"Elvanse Adult","itemStrength":"30mg","stockLevelValue":"R"}}},{"storeId":502,"displayName":"Leeds City Station","long":-1.547601543,"lat":53.794176159,"postcode":"LS1 4DT","street":"City Station","town":"Leeds","phoneNumber":"01132421713","stockLevels":{"26":{"itemName":"Elvanse Adult","itemStrength":"30mg","stockLevelValue":"G"}}},{"storeId":503,"displayName":"Burnley St James Street","long":-2.241137935,"lat":53.789428371,"postcode":"BB11 1QL","street":"51 St. James's St","town":"Burnley","phoneNumber":"01282421934","stockLevels":{"26":{"itemName":"Elvanse Adult","itemStrength":"30mg","stockLevelValue":"R"}}},{"storeId":505,"displayName":"Wakefield Kirkgate","long":-1.496005131,"lat":53.682400676,"postcode":"WF1 1UP","street":"26-28 Kirkgate","town":"Wakefield","phoneNumber":"01924376181","stockLevels":{"26":{"itemName":"Elvanse Adult","itemStrength":"30mg","stockLevelValue":"R"}}},{"storeId":506,"displayName":"Dewsbury Prince Of Wales Precinct","long":-1.628533453,"lat":53.690416748,"postcode":"WF13 1NH","street":"27 The Princess of Wales Precinct","town":"Dewsbury","phoneNumber":"01924455815","stockLevels":{"26":{"itemName":"Elvanse Adult","itemStrength":"30mg","stockLevelValue":"R"}}},{"storeId":507,"displayName":"Pontefract Beastfair","long":-1.312721704,"lat":53.691304938,"postcode":"WF8 1AL","street":"3-5 Beastfair","town":"Pontefract","phoneNumber":"01977703719","stockLevels":{"26":{"itemName":"Elvanse Adult","itemStrength":"30mg","stockLevelValue":"R"}}},{"storeId":509,"displayName":"Colne Market Street","long":-2.165951781,"lat":53.856983611,"postcode":"BB8 0HS","street":"64 Market St","town":"Colne","phoneNumber":"01282863502","stockLevels":{"26":{"itemName":"Elvanse Adult","itemStrength":"30mg","stockLevelValue":"R"}}},{"storeId":511,"displayName":"Chester Le Street St Cuthberts Walk","long":-1.575093015,"lat":54.857161497,"postcode":"DH3 3YQ","street":"St. Cuthberts Walk","town":"Chester Le Street","phoneNumber":"01913886262","stockLevels":{"26":{"itemName":"Elvanse Adult","itemStrength":"30mg","stockLevelValue":"R"}}},{"storeId":512,"displayName":"Bristol Clifton Queen Road","long":-2.607469704,"lat":51.457452323,"postcode":"BS8 1QU","street":"66 Queens Road","town":"Bristol","phoneNumber":"01179264083","stockLevels":{"26":{"itemName":"Elvanse Adult","itemStrength":"30mg","stockLevelValue":"R"}}},{"storeId":518,"displayName":"Johnstone High Street","long":-4.511890591,"lat":55.836838492,"postcode":"PA5 8AN","street":"52C High St","town":"Johnstone","phoneNumber":"01505320396","stockLevels":{"26":{"itemName":"Elvanse Adult","itemStrength":"30mg","stockLevelValue":"G"}}},{"storeId":519,"displayName":"Middlesbrough Cleveland Centre","long":-1.236521284,"lat":54.575377047,"postcode":"TS1 2JZ","street":"88-90 Cleveland Centre","town":"Middlesbrough","phoneNumber":"01642249616","stockLevels":{"26":{"itemName":"Elvanse Adult","itemStrength":"30mg","stockLevelValue":"R"}}},{"storeId":520,"displayName":"Leeds White Rose Shopping Centre","long":-1.574238532,"lat":53.758644941,"postcode":"LS11 8LL","street":"Lower Level","town":"Leeds","phoneNumber":"01132776196","stockLevels":{"26":{"itemName":"Elvanse Adult","itemStrength":"30mg","stockLevelValue":"R"}}},{"storeId":522,"displayName":"Kirkintilloch Regent Centre","long":-4.157263477,"lat":55.939626279,"postcode":"G66 1JH","street":"9 The Regent Centre","town":"Glasgow","phoneNumber":"01417763418","stockLevels":{"26":{"itemName":"Elvanse Adult","itemStrength":"30mg","stockLevelValue":"R"}}},{"storeId":523,"displayName":"Crieff High Street","long":-3.840130401,"lat":56.372704766,"postcode":"PH7 3HU","street":"9-13 High St","town":"Crieff","phoneNumber":"01764652310","stockLevels":{"26":{"itemName":"Elvanse Adult","itemStrength":"30mg","stockLevelValue":"R"}}},{"storeId":524,"displayName":"Keighley Airdale Centre","long":-1.907963502,"lat":53.866887456,"postcode":"BD21 3PY","street":"22-28 Queensway","town":"Keighley","phoneNumber":"01535602600","stockLevels":{"26":{"itemName":"Elvanse Adult","itemStrength":"30mg","stockLevelValue":"R"}}},{"storeId":525,"displayName":"Leeds Morley","long":-1.602227294,"lat":53.745330778,"postcode":"LS27 9BG","street":"3 Windsor Court","town":"Leeds","phoneNumber":"01132532387","stockLevels":{"26":{"itemName":"Elvanse Adult","itemStrength":"30mg","stockLevelValue":"R"}}},{"storeId":526,"displayName":"Skipton High Street","long":-2.0173397,"lat":53.961706321,"postcode":"BD23 1JP","street":"54-56 High St","town":"Skipton","phoneNumber":"01756792091","stockLevels":{"26":{"itemName":"Elvanse Adult","itemStrength":"30mg","stockLevelValue":"R"}}},{"storeId":527,"displayName":"Thirsk Market Place","long":-1.343244717,"lat":54.23207958,"postcode":"YO7 1LB","street":"28 Market Pl","town":"Thirsk","phoneNumber":"01845522110","stockLevels":{"26":{"itemName":"Elvanse Adult","itemStrength":"30mg","stockLevelValue":"R"}}},{"storeId":530,"displayName":"Huddersfield King Street","long":-1.781348215,"lat":53.645411485,"postcode":"HD1 2QE","street":"22 KING STREET","town":"HUDDERSFIELD","phoneNumber":"01484421756","stockLevels":{"26":{"itemName":"Elvanse Adult","itemStrength":"30mg","stockLevelValue":"R"}}},{"storeId":531,"displayName":"Bolton The Gates Shopping Centre","long":-2.427598189,"lat":53.579258211,"postcode":"BL1 1DF","street":"12-15 The Gates Shopping Centre","town":"Bolton","phoneNumber":"01204528266","stockLevels":{"26":{"itemName":"Elvanse Adult","itemStrength":"30mg","stockLevelValue":"R"}}},{"storeId":533,"displayName":"Leeds Rothwell Commercial Street","long":-1.477367819,"lat":53.748411014,"postcode":"LS26 0AP","street":"69-91 Commercial Street","town":"Leeds","phoneNumber":"01132822269","stockLevels":{"26":{"itemName":"Elvanse Adult","itemStrength":"30mg","stockLevelValue":"R"}}},{"storeId":534,"displayName":"Pudsey Church Lane","long":-1.663897751,"lat":53.796283866,"postcode":"LS28 7LD","street":"11 Church La","town":"Pudsey","phoneNumber":"01132574862","stockLevels":{"26":{"itemName":"Elvanse Adult","itemStrength":"30mg","stockLevelValue":"R"}}},{"storeId":537,"displayName":"Clydebank Clyde Shopping Centre","long":-4.403685616,"lat":55.904648211,"postcode":"G81 2TL","street":"98 Sylvania Way","town":"Clydebank","phoneNumber":"01419522217","stockLevels":{"26":{"itemName":"Elvanse Adult","itemStrength":"30mg","stockLevelValue":"G"}}},{"storeId":540,"displayName":"South Shields King Street","long":-1.434610307,"lat":54.99801722,"postcode":"NE33 1DH","street":"49-61 King St","town":"South Shields","phoneNumber":"01914560616","stockLevels":{"26":{"itemName":"Elvanse Adult","itemStrength":"30mg","stockLevelValue":"R"}}},{"storeId":541,"displayName":"Brighouse Commercial Street","long":-1.780706576,"lat":53.702089656,"postcode":"HD6 1AF","street":"59-61 Commercial St","town":"Brighouse","phoneNumber":"01484714070","stockLevels":{"26":{"itemName":"Elvanse Adult","itemStrength":"30mg","stockLevelValue":"R"}}},{"storeId":542,"displayName":"Forres High Street","long":-3.613149833,"lat":57.609813657,"postcode":"IV36 1NX","street":"90 High St","town":"Forres","phoneNumber":"01309673370","stockLevels":{"26":{"itemName":"Elvanse Adult","itemStrength":"30mg","stockLevelValue":"R"}}},{"storeId":543,"displayName":"Edinburgh Corstorphine","long":-3.280339479,"lat":55.942383142,"postcode":"EH12 7SB","street":"129 St. Johns Rd","town":"Edinburgh","phoneNumber":"01313344520","stockLevels":{"26":{"itemName":"Elvanse Adult","itemStrength":"30mg","stockLevelValue":"R"}}},{"storeId":545,"displayName":"Dundee Broughty Ferry","long":-2.874668527,"lat":56.467308955,"postcode":"DD5 2AG","street":"221 Brook Street","town":"Dundee","phoneNumber":"01382477482","stockLevels":{"26":{"itemName":"Elvanse Adult","itemStrength":"30mg","stockLevelValue":"R"}}},{"storeId":546,"displayName":"Bathgate George Street","long":-3.641482493,"lat":55.902307915,"postcode":"EH48 1PW","street":"26-30 George St","town":"Bathgate","phoneNumber":"01506652682","stockLevels":{"26":{"itemName":"Elvanse Adult","itemStrength":"30mg","stockLevelValue":"R"}}},{"storeId":547,"displayName":"Washington Arndale House","long":-1.522248747,"lat":54.913103479,"postcode":"NE37 2SW","street":"12 Arndale House","town":"Washington","phoneNumber":"01914160825","stockLevels":{"26":{"itemName":"Elvanse Adult","itemStrength":"30mg","stockLevelValue":"R"}}},{"storeId":548,"displayName":"Darlington Northgate","long":-1.5544521,"lat":54.5270959,"postcode":"DL1 1TT","street":"47-53 Northgate","town":"Darlington","phoneNumber":"01325465644","stockLevels":{"26":{"itemName":"Elvanse Adult","itemStrength":"30mg","stockLevelValue":"R"}}},{"storeId":549,"displayName":"Barnard Castle Market Place","long":-1.923455929,"lat":54.543177956,"postcode":"DL12 8NE","street":"37-39 Market Pl","town":"Barnard Castle","phoneNumber":"01833638151","stockLevels":{"26":{"itemName":"Elvanse Adult","itemStrength":"30mg","stockLevelValue":"R"}}},{"storeId":550,"displayName":"St Andrews Market Street","long":-2.797062641,"lat":56.340603179,"postcode":"KY16 9PE","street":"113-117 Market St","town":"St. Andrews","phoneNumber":"01334474306","stockLevels":{"26":{"itemName":"Elvanse Adult","itemStrength":"30mg","stockLevelValue":"R"}}},{"storeId":551,"displayName":"Bridlington 9-13 The Promenade","long":-0.189336172,"lat":54.082658457,"postcode":"YO15 2PY","street":"9-13 Promenade","town":"Bridlington","phoneNumber":"01262673202","stockLevels":{"26":{"itemName":"Elvanse Adult","itemStrength":"30mg","stockLevelValue":"R"}}},{"storeId":553,"displayName":"Whitby Baxtergate","long":-0.615250689,"lat":54.485963852,"postcode":"YO21 1BL","street":"64-66 Baxtergate","town":"Whitby","phoneNumber":"01947602219","stockLevels":{"26":{"itemName":"Elvanse Adult","itemStrength":"30mg","stockLevelValue":"R"}}},{"storeId":554,"displayName":"Knaresborough Market Place","long":-1.467039418,"lat":54.008261145,"postcode":"HG5 8AG","street":"22-28 Market Pl","town":"Knaresborough","phoneNumber":"01423863171","stockLevels":{"26":{"itemName":"Elvanse Adult","itemStrength":"30mg","stockLevelValue":"R"}}},{"storeId":556,"displayName":"Ilkley Brook Street","long":-1.823744187,"lat":53.925915418,"postcode":"LS29 8AG","street":"37-39 Brook St","town":"Ilkley","phoneNumber":"01943816959","stockLevels":{"26":{"itemName":"Elvanse Adult","itemStrength":"30mg","stockLevelValue":"R"}}},{"storeId":557,"displayName":"Crook North Terrace","long":-1.744249213,"lat":54.71570228,"postcode":"DL15 9AZ","street":"8 North Ter","town":"Crook","phoneNumber":"01388762726","stockLevels":{"26":{"itemName":"Elvanse Adult","itemStrength":"30mg","stockLevelValue":"R"}}},{"storeId":559,"displayName":"Guisborough Westgate","long":-1.053026131,"lat":54.535633479,"postcode":"TS14 6BA","street":"18 Westgate","town":"Guisborough","phoneNumber":"01287632365","stockLevels":{"26":{"itemName":"Elvanse Adult","itemStrength":"30mg","stockLevelValue":"R"}}},{"storeId":561,"displayName":"Durham Market Place","long":-1.575187202,"lat":54.776957243,"postcode":"DH1 3NB","street":"2-5 Market Pl","town":"Durham","phoneNumber":"01913842213","stockLevels":{"26":{"itemName":"Elvanse Adult","itemStrength":"30mg","stockLevelValue":"R"}}},{"storeId":564,"displayName":"Wetherby Horsefair Centre","long":-1.384925668,"lat":53.929054768,"postcode":"LS22 6FL","street":"1 The Horsefair Ctr","town":"Wetherby","phoneNumber":"01937581676","stockLevels":{"26":{"itemName":"Elvanse Adult","itemStrength":"30mg","stockLevelValue":"R"}}},{"storeId":565,"displayName":"Scarborough Westborough","long":-0.402949715,"lat":54.281515796,"postcode":"YO11 1LN","street":"100-101 Westborough","town":"Scarborough","phoneNumber":"01723374455","stockLevels":{"26":{"itemName":"Elvanse Adult","itemStrength":"30mg","stockLevelValue":"R"}}},{"storeId":567,"displayName":"Hartlepool Middleton Grange Shopping Centre","long":-1.214113481,"lat":54.684281716,"postcode":"TS24 7RW","street":"89 Middleton Grange Shopping Ctr","town":"Hartlepool","phoneNumber":"01429272718","stockLevels":{"26":{"itemName":"Elvanse Adult","itemStrength":"30mg","stockLevelValue":"R"}}},{"storeId":568,"displayName":"Sunderland The Bridges","long":-1.384685385,"lat":54.905799294,"postcode":"SR1 3LF","street":"45 The Bridges","town":"Sunderland","phoneNumber":"01915670933","stockLevels":{"26":{"itemName":"Elvanse Adult","itemStrength":"30mg","stockLevelValue":"R"}}},{"storeId":573,"displayName":"Washington The Galleries","long":-1.532741151,"lat":54.900104988,"postcode":"NE38 7RT","street":"81 The Galleries","town":"Washington","phoneNumber":"01914161680","stockLevels":{"26":{"itemName":"Elvanse Adult","itemStrength":"30mg","stockLevelValue":"R"}}},{"storeId":574,"displayName":"Belfast Castle Court","long":-5.934252608,"lat":54.600590816,"postcode":"BT1 1DD","street":"Castle Ct","town":"Belfast","phoneNumber":"02890322803","stockLevels":{"26":{"itemName":"Elvanse Adult","itemStrength":"30mg","stockLevelValue":"R"}}},{"storeId":575,"displayName":"Stonehaven Evan Street","long":-2.209890476,"lat":56.963865565,"postcode":"AB39 2EQ","street":"2-6 Evan Street","town":"Stonehaven","phoneNumber":"01569762159","stockLevels":{"26":{"itemName":"Elvanse Adult","itemStrength":"30mg","stockLevelValue":"R"}}},{"storeId":576,"displayName":"Hull Newland Avenue","long":-0.359040072,"lat":53.764396545,"postcode":"HU5 2ES","street":"139 Newland Ave","town":"Hull","phoneNumber":"01482442101","stockLevels":{"26":{"itemName":"Elvanse Adult","itemStrength":"30mg","stockLevelValue":"R"}}},{"storeId":577,"displayName":"Chichester 10-12 North Street","long":-0.779107856,"lat":50.837375586,"postcode":"PO19 1LB","street":"10-12 North St","town":"Chichester","phoneNumber":"01243819012","stockLevels":{"26":{"itemName":"Elvanse Adult","itemStrength":"30mg","stockLevelValue":"R"}}},{"storeId":579,"displayName":"Peterlee The Chare","long":-1.334001673,"lat":54.758942705,"postcode":"SR8 1EA","street":"30-32 The Chare","town":"Peterlee","phoneNumber":"01915862640","stockLevels":{"26":{"itemName":"Elvanse Adult","itemStrength":"30mg","stockLevelValue":"R"}}},{"storeId":581,"displayName":"Ripon Market Place West","long":-1.524259318,"lat":54.136583856,"postcode":"HG4 1BN","street":"27 MARKET PLACE WEST","town":"RIPON","phoneNumber":"01765605071","stockLevels":{"26":{"itemName":"Elvanse Adult","itemStrength":"30mg","stockLevelValue":"R"}}},{"storeId":583,"displayName":"Paisley The Paisley Centre","long":-4.424527027,"lat":55.844560143,"postcode":"PA1 2AF","street":"23 High St","town":"Paisley","phoneNumber":"01418893897","stockLevels":{"26":{"itemName":"Elvanse Adult","itemStrength":"30mg","stockLevelValue":"R"}}},{"storeId":585,"displayName":"Leicester Highcross Shopping Centre","long":-1.135137868,"lat":52.636269783,"postcode":"LE1 4FQ","street":"38-39 Shires Walk","town":"Leicester","phoneNumber":"01162624149","stockLevels":{"26":{"itemName":"Elvanse Adult","itemStrength":"30mg","stockLevelValue":"R"}}},{"storeId":587,"displayName":"Selby Market Place","long":-1.06897656,"lat":53.783725802,"postcode":"YO8 4PB","street":"10-11 Market Pl","town":"Selby","phoneNumber":"01757703717","stockLevels":{"26":{"itemName":"Elvanse Adult","itemStrength":"30mg","stockLevelValue":"R"}}},{"storeId":590,"displayName":"Haddington High Street","long":-2.777639291,"lat":55.955198983,"postcode":"EH41 3EE","street":"35-36 High St","town":"Haddington","phoneNumber":"01620823349","stockLevels":{"26":{"itemName":"Elvanse Adult","itemStrength":"30mg","stockLevelValue":"R"}}},{"storeId":591,"displayName":"Grangemouth La Porte Precinct","long":-3.723707678,"lat":56.018490582,"postcode":"FK3 8BG","street":"32-34 La Porte Precinct","town":"Grangemouth","phoneNumber":"01324482118","stockLevels":{"26":{"itemName":"Elvanse Adult","itemStrength":"30mg","stockLevelValue":"R"}}},